stop_id,stop_code,stop_name,stop_lat,stop_lon,wheelchair_boarding
1,10280,Station Henri-Bourassa,45.556109,-73.667452,1
10,10262,Station Sherbrooke,45.518345,-73.568251,2
100006,61396,Sainte-Anne / Sainte-Marie,45.402742,-73.947489,2
100007,61503,Robert / Cluny,45.580406,-73.607774,1
100009,61506,du Bois-de-Boulogne / stationnement,45.541494,-73.689973,2
100010,61507,du Bois-de-Boulogne / stationnement,45.541489,-73.690283,2
100011,61508,Henri-Bourassa / du Bois-de-Boulogne,45.537780,-73.678503,2
100012,61509,Centre communautaire d'Anjou / Centre communautair,45.606310,-73.563542,2
100013,61510,Yves-Prévost / Joseph-Renaud,45.604320,-73.546177,2
100014,61511,Sainte-Catherine / d'Orléans,45.546645,-73.536455,2
100015,61512,Sainte-Catherine / d'Orléans,45.546860,-73.536518,2
100016,61513,Moreau / Adam,45.538432,-73.544233,2
100037,61525,Gare Rivière-des-Prairies,45.661754,-73.537953,1
100042,61529,Henri-Bourassa / 6e avenue,45.617184,-73.593218,1
100043,61530,Henri-Bourassa / 6e Avenue,45.617101,-73.593864,1
100050,61537,Arthur-Fecteau / Roméo-Vachon,45.453611,-73.744596,2
100051,61538,Roméo-Vachon / No 700,45.454459,-73.751327,2
100052,61539,Roméo-Vachon / No 700,45.454115,-73.751274,2
100053,61540,Arthur-Fecteau / Roméo-Vachon,45.453558,-73.744647,2
100054,61541,Mc Millan / No 555,45.453122,-73.740979,2
100055,61542,Henri-Bourassa / Pie IX,45.595517,-73.642552,1
100056,61543,Pie-IX / d'Amos,45.594527,-73.640957,1
100057,61544,Carrefour Henri-Bourassa / Pie-IX,45.596640,-73.643194,1
100058,61545,Carrefour Henri-Bourassa / Pie-IX,45.596806,-73.642472,1
100059,61546,Lacordaire / Gare Saint-Léonard-Montréal-Nord,45.600693,-73.613607,1
100060,61547,Lacordaire / Gare Saint-Léonard-Montréal-Nord,45.600768,-73.613282,1
100062,61549,Station Rosemont (Saint-Denis / Rosemont),45.530882,-73.597834,1
100063,61550,des Futailles / Notre-Dame,45.581131,-73.512412,2
100064,61551,Lafleur / Centrale,45.423313,-73.650700,1
100065,61552,Henri-Bourassa / No 5700,45.517525,-73.716231,2
100066,61553,Villeray / 20e Avenue,45.567264,-73.598291,1
100067,61554,Marc-Cantin / Fernand-Seguin,45.480261,-73.543385,2
100068,61555,Marc-Cantin / Studios Mel's,45.478246,-73.544413,2
100069,61556,Papineau / de Louvain,45.561754,-73.638017,1
100071,61558,Décarie / CUSM,45.471538,-73.602838,1
100072,61559,CUSM,45.472923,-73.601988,1
100073,61561,Station Lionel-Groulx  (Saint-Jacques / Atwater),45.483380,-73.579491,1
100074,61562,Gaétan-Laberge / Gilberte Dubé,45.470180,-73.562393,2
100075,61563,Gaétan-Laberge / Rhéaume,45.467841,-73.562979,2
100076,61564,Station de l'Église / Ross,45.462801,-73.566293,2
100077,61565,Galt / Wellington,45.461857,-73.567243,2
100078,61566,Gaétan-Laberge / de l'Église,45.463063,-73.562438,2
100079,61567,Gaétan-Laberge / Hickson,45.464642,-73.562759,2
100080,61568,Gaétan-Laberge / No 3750,45.465927,-73.562301,2
100081,61569,Gaétan-Laberge / Rhéaume,45.467726,-73.562581,2
100082,61570,Gaétan-Laberge / Gilberte Dubé,45.470242,-73.561907,2
100083,61571,Gaétan-Laberge / No 3750,45.465951,-73.562608,2
100084,61572,Gaétan-Laberge / Hickson,45.464827,-73.563037,2
100085,61573,Saint-Louis / Gohier,45.507229,-73.673297,2
100086,61577,Jean-Talon / De Chateaubriand,45.539628,-73.613506,1
100087,61575,De Chateaubriand / Beaubien,45.535460,-73.603955,2
100088,61574,Saint-Denis / Beaubien,45.534008,-73.604813,2
100089,61578,Fairview / Brunswick,45.462616,-73.837343,2
100092,61579,Rosemont / Chambord,45.537255,-73.592721,1
100094,61581,Sherbrooke / gare Pointe-aux-Trembles,45.675629,-73.502987,1
100095,61582,Sherbrooke / gare Pointe-aux-Trembles,45.675020,-73.502986,1
100096,61583,Pie-IX / Ontario,45.550271,-73.541508,1
100103,61588,Viau / Hochelaga,45.561198,-73.541833,2
100104,61589,Viau / de Rouen,45.560341,-73.539222,2
100105,61590,Viau / Ontario,45.559187,-73.535701,2
100106,61591,Viau / La Fontaine,45.558514,-73.533647,2
100107,61592,Viau / Adam,45.557880,-73.531716,2
100108,61593,Viau / Sainte-Catherine,45.557326,-73.530025,2
100323,50101,Louis-Hippolyte-La Fontaine / Curatteau,45.594058,-73.542634,1
100360,50102,Saint-Jacques / No 6640,45.460511,-73.625831,1
100370,50103,Saint-Jacques / No 6710,45.458946,-73.626973,1
100664,50104,Jean-Talon / Wilderton,45.513581,-73.632259,1
100782,50105,Station Viau,45.560876,-73.547179,1
101260,50106,Saint-Joseph / No 3500,45.552134,-73.566095,1
101291,50107,Viau / de Marseille,45.563712,-73.549051,1
101313,50108,Viau / centre sportif Pierre-Charbonneau,45.563623,-73.549505,1
101341,50109,Louis-Hippolyte-La Fontaine / Fonteneau,45.595253,-73.543647,1
101354,50110,Sherbrooke / Gare Montréal-Ouest,45.454203,-73.641481,1
101391,50111,du Parc / Milton,45.509507,-73.573516,1
101401,50112,du Parc / Prince-Arthur,45.510422,-73.575515,1
101450,50113,Rachel / André-Laurendeau,45.542598,-73.561619,1
101589,50114,Édouard-Montpetit / No 2141,45.508717,-73.614035,1
101641,50115,du Parc / Léo-Pariseau,45.511119,-73.576976,1
101700,50116,Bates / No 240,45.515185,-73.629424,1
101733,50117,Station  Jean-Drapeau,45.511667,-73.532256,1
101882,50118,Industriel / Jean-Sicard,45.651829,-73.517467,2
101904,50119,Sherbrooke / Yves-Thériault,45.678884,-73.501596,1
101914,50120,Sherbrooke / Arthur-Généreux,45.681082,-73.500887,1
101922,50121,Sherbrooke / Arthur-Généreux,45.681187,-73.501012,1
102079,50122,Henri-Bourassa / No 9875,45.645183,-73.551213,1
102212,50123,Sherbrooke / du Parc-La Fontaine,45.521550,-73.565691,1
102292,50124,Gouin / du Ruisseau,45.510483,-73.753399,2
102322,50125,Gouin / Wilfrid-Lazure,45.518952,-73.742992,2
102332,50126,Gouin / Antoine-Berthelet,45.520348,-73.741198,2
102352,50127,Gouin / Albert-Prévost,45.522795,-73.738182,1
102362,50128,Gouin / Toupin,45.524118,-73.736279,1
102364,50129,Gouin / Toupin,45.523831,-73.736460,1
102368,50130,Toupin / Gouin,45.523686,-73.736102,1
102371,50131,de Beauséjour / Gouin,45.524909,-73.734324,1
102372,50132,Gouin / de Beauséjour,45.525126,-73.734468,1
102374,50133,Gouin / de Beauséjour,45.524869,-73.734645,1
102382,50134,Gouin / Olivier,45.525747,-73.732370,1
102384,50135,Gouin / Olivier,45.525705,-73.731987,1
102392,50136,Gouin / Henri-D'Arles,45.526685,-73.730418,1
102394,50137,Gouin / Henri-D'Arles,45.526374,-73.730507,1
102402,50138,Gouin / du Golf,45.527854,-73.728571,1
102404,50139,Gouin / du Golf,45.527490,-73.729165,1
102412,50140,Gouin / de Somerset,45.528800,-73.725537,1
102414,50141,Gouin / de Somerset,45.528576,-73.725786,1
102422,50142,Gouin / Cousineau,45.529320,-73.724040,1
102431,50143,Laurentien / Gouin,45.529650,-73.722972,1
102432,50144,Gouin / Laurentien,45.529877,-73.723209,1
102434,50145,Gouin / Laurentien,45.529282,-73.723776,1
102454,50146,Gouin / Lachapelle,45.530971,-73.721893,1
102458,50147,Lachapelle / Chevalier,45.530837,-73.721322,1
102468,50148,Ranger / Gouin,45.531522,-73.720881,1
102491,50149,Grenet / De Serres,45.531255,-73.718523,1
102492,50150,De Serres / Grenet,45.531603,-73.718828,1
102496,50151,Grenet / Gouin,45.532006,-73.719702,1
102501,50152,Laurentien / Émile-Nelligan (sud),45.527722,-73.719440,1
102513,50153,Lachapelle / Émile-Nelligan,45.529125,-73.718639,1
102521,50154,Grenet / De Mésy,45.530659,-73.717589,1
102523,50155,Grenet / De Mésy,45.530721,-73.717968,1
102524,50156,De Mésy / Grenet,45.530522,-73.717984,1
102532,50157,Gouin / de la Miséricorde,45.533450,-73.717587,1
102534,50158,Gouin / de la Miséricorde,45.533105,-73.717834,1
102541,50159,Laurentien / Périnault,45.526644,-73.716537,1
102555,50160,Gouin / Notre-Dame-des-Anges,45.534210,-73.715879,1
102561,50161,Grenet / Legault,45.529502,-73.715782,1
102563,50162,Grenet / Legault,45.529610,-73.716209,1
102573,50163,Lachapelle / Périnault,45.527471,-73.716057,1
102581,50164,Saint-Évariste / Gouin,45.535469,-73.714627,1
102584,50165,Gouin / Saint-Évariste,45.535391,-73.714834,1
102587,50166,Gouin / Saint-Évariste,45.535515,-73.715061,1
102592,50167,De Salaberry / Lachapelle,45.526622,-73.714290,1
102604,50169,Gouin / de la Capricieuse,45.536339,-73.713634,1
102607,50170,Gouin / Saint-Germain,45.536255,-73.713986,1
102611,50171,Grenet / De Salaberry,45.527567,-73.712734,1
102612,50172,De Salaberry / Grenet,45.527829,-73.712795,1
102613,50173,Grenet / De Salaberry,45.527306,-73.712583,1
102614,50174,De Salaberry / Grenet,45.527465,-73.712955,1
102622,50175,Gouin / Dépatie,45.537531,-73.712055,1
102624,50176,Gouin / de La Minerve,45.537311,-73.712145,1
102630,50177,Grenet / No 11940,45.526654,-73.711563,1
102652,50178,De Salaberry / De Meulles,45.529281,-73.711002,1
102654,50179,De Salaberry / De Meulles,45.528998,-73.711061,1
102672,50180,Gouin / Filion,45.538528,-73.710535,1
102674,50181,Gouin / Filion,45.538404,-73.710462,1
102684,50182,de Louisbourg / Ranger,45.524939,-73.710630,1
102691,50183,Grenet / de Louisbourg,45.525586,-73.709629,1
102693,50184,Grenet / de Louisbourg,45.525677,-73.710026,1
102694,50185,de Louisbourg / Grenet,45.525500,-73.709935,1
102697,50186,de Louisbourg / Grenet,45.525412,-73.710255,1
102702,50187,Gouin / Bohlé,45.540315,-73.708542,1
102704,50188,Gouin / Bohlé,45.540096,-73.708604,1
102712,50189,De Salaberry / Saint-Évariste,45.531526,-73.708222,1
102714,50190,De Salaberry / Saint-Évariste,45.531256,-73.708266,1
102731,50191,Grenet / Ranger,45.524545,-73.707980,1
102733,50192,Grenet / Ranger,45.524672,-73.708450,1
102735,50193,Dudemaine / Grenet,45.524478,-73.707622,1
102736,50194,Dudemaine / Grenet,45.524712,-73.707787,1
102751,50195,O'Brien / De Salaberry,45.532359,-73.706772,1
102752,50196,De Salaberry / O'Brien,45.532575,-73.706884,1
102753,50197,O'Brien / De Salaberry,45.532449,-73.707192,1
102754,50198,De Salaberry / O'Brien,45.532237,-73.707020,1
102762,50199,Gouin / De Poutrincourt,45.541737,-73.706417,1
102764,50200,Gouin / De Poutrincourt,45.541500,-73.706623,1
102772,50201,Dudemaine / Michel-Sarrazin,45.525043,-73.705877,1
102774,50202,Dudemaine / Michel-Sarrazin,45.524854,-73.706052,1
102782,50203,De Salaberry / Guertin,45.534139,-73.704896,1
102784,50204,De Salaberry / Guertin,45.533814,-73.705013,1
102792,50205,Gouin / René-Guénette,45.542432,-73.704963,1
102794,50206,Gouin / Taylor,45.542415,-73.704684,1
102802,50207,Dudemaine / Robert-Giffard,45.526212,-73.703788,1
102804,50208,Dudemaine / Robert-Giffard,45.525994,-73.703845,1
102811,50209,de l'Acadie / Gouin,45.543179,-73.702429,1
102818,50210,de l'Acadie / Gouin,45.543147,-73.702872,1
102822,50211,Dudemaine / Saint-Évariste,45.527605,-73.702026,1
102824,50212,Dudemaine / Saint-Évariste,45.527288,-73.702214,1
102831,50213,O'Brien / Dudemaine,45.528466,-73.700593,1
102832,50214,Dudemaine / O'Brien,45.528691,-73.700645,1
102833,50215,O'Brien / Dudemaine,45.528523,-73.700961,1
102834,50216,Dudemaine / O'Brien,45.528385,-73.700840,1
102842,50217,De Salaberry / De Poutrincourt,45.537654,-73.699964,1
102844,50218,De Salaberry / De Poutrincourt,45.537250,-73.700209,1
102851,50219,de l'Acadie / Viel,45.541786,-73.698460,1
102853,50220,de l'Acadie / Viel,45.541755,-73.698909,1
102858,50221,de l'Acadie / Viel,45.541521,-73.698240,1
102862,50222,Dudemaine / Guertin,45.530163,-73.698779,1
102864,50223,Dudemaine / Guertin,45.529949,-73.698857,1
102871,50224,Valmont / Viel,45.542454,-73.697868,1
102882,50225,De Salaberry / Taylor,45.539199,-73.697723,1
102884,50226,De Salaberry / Taylor,45.538834,-73.697936,1
102895,50227,Dudemaine / Élie-Blanchard,45.531042,-73.697471,1
102902,50228,Dudemaine / Élie-Blanchard,45.531572,-73.696992,1
102911,50229,de l'Acadie / De Salaberry,45.540761,-73.695461,1
102912,50230,De Salaberry / de l'Acadie,45.541066,-73.695609,1
102913,50231,de l'Acadie / De Salaberry,45.540739,-73.696019,1
102917,50232,De Salaberry / Frigon,45.540559,-73.696084,1
102918,50233,de l'Acadie / De Salaberry,45.540262,-73.694745,1
102924,50234,De Salaberry / du Bois-de-Boulogne,45.542653,-73.694251,1
102927,50235,De Salaberry / Desenclaves,45.542410,-73.694659,1
102942,50236,Dudemaine / De Poutrincourt,45.533797,-73.694206,1
102945,50237,Dudemaine / De Poutrincourt,45.533487,-73.694337,1
102952,50238,De Salaberry / Poincaré,45.545348,-73.692775,1
102954,50239,De Salaberry / Poincaré,45.544806,-73.692884,1
102962,50240,Dudemaine / James-Morrice,45.534759,-73.692984,1
102964,50241,Dudemaine / James-Morrice,45.534505,-73.693045,1
102981,50242,de l'Acadie / de Louisbourg,45.539451,-73.691847,1
102983,50243,de l'Acadie / de Louisbourg,45.539374,-73.692395,1
102992,50244,Dudemaine / Pasteur,45.536605,-73.690646,1
102994,50245,Dudemaine / Pasteur,45.536361,-73.690694,1
103001,50246,de l'Acadie / Dudemaine,45.537897,-73.688524,1
103002,50247,Dudemaine / de l'Acadie,45.538121,-73.688723,1
103004,50248,Dudemaine / de l'Acadie,45.537699,-73.688997,1
103008,50249,de l'Acadie / Dudemaine,45.537578,-73.688446,1
103017,50250,Dudemaine / Laforest,45.540236,-73.687328,1
103021,50251,de l'Acadie / Charles-Gill,45.535821,-73.683951,1
103023,50252,de l'Acadie / Charles-Gill,45.535804,-73.684540,1
103032,50253,Gouin / Tanguay,45.547481,-73.683556,1
103034,50254,Gouin / Tanguay,45.547432,-73.683825,1
103041,50255,du Bois-de-Boulogne / Marie-Rollet,45.539297,-73.682855,1
103043,50256,du Bois-de-Boulogne / Marie-Rollet,45.539345,-73.683340,1
103052,50257,Gouin / Jeanne-Mance,45.548002,-73.680556,1
103054,50258,Gouin / Jeanne-Mance,45.547776,-73.680995,1
103061,50259,de l'Acadie / Henri-Bourassa,45.534285,-73.680542,1
103062,50260,Henri-Bourassa / de l'Acadie,45.534612,-73.680928,1
103063,50261,de l'Acadie / Henri-Bourassa,45.534302,-73.681229,1
103064,50262,Henri-Bourassa / de l'Acadie,45.533999,-73.680867,1
103065,50263,Henri-Bourassa / de l'Acadie,45.534557,-73.680518,1
103072,50264,Henri-Bourassa / Marcelin-Wilson,45.536506,-73.679716,1
103074,50265,Henri-Bourassa / Marcelin-Wilson,45.536074,-73.679577,1
103082,50266,Gouin / Meunier,45.548689,-73.678500,1
103084,50267,Gouin / Meunier,45.548512,-73.678792,1
103092,50268,Henri-Bourassa / du Bois-de-Boulogne,45.538176,-73.678668,1
103093,50269,du Bois-de-Boulogne / Henri-Bourassa,45.538061,-73.679216,1
103095,50270,Henri-Bourassa / du Bois-de-Boulogne,45.538639,-73.677965,1
103097,58614,Henri-Bourassa / du Bois-de-Boulogne,45.537762,-73.678923,2
103102,50271,Gouin / Waverly,45.549708,-73.676818,1
103104,50272,Gouin / Waverly,45.549520,-73.677011,1
103113,50273,de l'Acadie / Persillier,45.534095,-73.673923,1
103132,50274,Gouin / Clark,45.550819,-73.675208,1
103134,50275,Gouin / Clark,45.550546,-73.675455,1
103141,50276,Meilleur / Henri-Bourassa,45.543293,-73.674850,1
103142,50277,Henri-Bourassa / Meilleur,45.543588,-73.675332,1
103144,50278,Henri-Bourassa / Meilleur,45.542645,-73.675518,1
103152,50279,Henri-Bourassa / Tanguay,45.544659,-73.674593,1
103154,50280,Henri-Bourassa / Tanguay,45.544329,-73.674396,1
103161,50281,Saint-Laurent / Gouin,45.551254,-73.673673,1
103168,50282,Saint-Laurent / Gouin,45.551173,-73.673997,1
103172,50283,Henri-Bourassa / Jeanne-Mance,45.545824,-73.673856,1
103174,50284,Henri-Bourassa / Jeanne-Mance,45.545470,-73.673667,1
103182,50285,Henri-Bourassa / Meunier,45.547011,-73.673124,1
103184,50286,Henri-Bourassa / Meunier,45.546681,-73.672917,1
103202,50287,Henri-Bourassa / Waverly,45.548317,-73.672330,1
103204,50288,Henri-Bourassa / Waverly,45.547990,-73.672118,1
103211,50289,Meilleur / Prieur,45.542429,-73.672049,1
103223,50290,Hogue / Prieur,45.543002,-73.672065,1
103233,50291,Saint-Laurent / Lighthall,45.550543,-73.671906,1
103241,50292,de l'Acadie / du Liban,45.534967,-73.670995,1
103243,50293,de l'Acadie / Olivier-Berthelet,45.534609,-73.671539,1
103261,50294,Saint-Laurent / Henri-Bourassa,45.550331,-73.670602,1
103262,50295,Henri-Bourassa / Saint-Laurent,45.550563,-73.670989,1
103264,50296,Henri-Bourassa / Saint-Laurent,45.550149,-73.670827,1
103265,50297,Henri-Bourassa / Saint-Laurent,45.550605,-73.670562,1
103268,50298,Saint-Laurent / Henri-Bourassa,45.550090,-73.670421,1
103282,50299,Henri-Bourassa / Laverdure,45.552234,-73.670010,1
103284,50300,Henri-Bourassa / Laverdure,45.551818,-73.669837,1
103302,50301,Station Henri-Bourassa / Saint-Denis,45.553899,-73.669150,1
103312,50302,Fleury / Hogue,45.541840,-73.669050,1
103324,50303,Station Henri-Bourassa Ouest / Berri,45.554262,-73.668563,1
103328,50304,Station Henri-Bourassa Ouest / Berri,45.554130,-73.667669,1
103341,50305,Station Henri-Bourassa / Lajeunesse (descente),45.555102,-73.667558,1
103342,50306,Station Henri-Bourassa Nord / Lajeunesse,45.555555,-73.668223,1
103345,50307,Station Henri-Bourassa Sud / Millen,45.556117,-73.667485,1
103351,50308,Meilleur / du Mont-Cassin,45.540944,-73.667963,1
103361,50309,Saint-Laurent / Prieur,45.549468,-73.667752,1
103363,50310,Saint-Laurent / Prieur,45.549408,-73.668153,1
103372,50311,Fleury / Jeanne-Mance,45.543895,-73.667756,1
103384,50313,Station Henri-Bourassa / Terminus,45.556036,-73.667115,1
103386,50314,Station Henri-Bourassa (Millen / Henri-Bourassa),45.556953,-73.668029,1
103395,50315,Fleury / Tolhurst,45.544413,-73.667275,1
103402,50316,Henri-Bourassa / Saint-Hubert,45.558513,-73.667278,1
103405,50317,Henri-Bourassa / Saint-Hubert,45.558617,-73.666727,1
103408,50318,Saint-Hubert / Henri-Bourassa,45.558125,-73.666607,1
103412,50319,Fleury / de l'Esplanade,45.545814,-73.666590,1
103414,50320,Fleury / de l'Esplanade,45.545584,-73.666575,1
103434,50321,Henri-Bourassa / Georges-Baril,45.560217,-73.665603,1
103442,50322,Fleury / Saint-Urbain,45.547077,-73.665840,1
103444,50323,Fleury / Saint-Urbain,45.546844,-73.665827,1
103451,50324,de l'Acadie / Sauvé,45.535741,-73.665271,1
103452,50325,Sauvé / de l'Acadie,45.535882,-73.665750,1
103453,50326,de l'Acadie / Sauvé,45.535541,-73.665998,1
103455,50328,Sauvé / de l'Acadie,45.536011,-73.665364,1
103456,50329,de l'Acadie / Sauvé,45.535777,-73.666361,1
103457,50330,Sauvé / de l'Acadie,45.535195,-73.665883,1
103458,50331,de l'Acadie / de Port-Royal,45.535418,-73.664654,2
103463,50332,Berri / Prieur,45.553544,-73.665642,1
103472,50333,Henri-Bourassa / De La Roche,45.561225,-73.665374,1
103481,50334,Lajeunesse / Prieur,45.554314,-73.664845,1
103494,50335,Henri-Bourassa / Chambord,45.561525,-73.664681,1
103501,50336,Saint-Laurent / Fleury,45.548539,-73.664678,1
103502,50337,Fleury / Saint-Laurent,45.548672,-73.664879,1
103503,50338,Saint-Laurent / Fleury,45.548478,-73.665086,1
103504,50339,Fleury / Saint-Laurent,45.548347,-73.664906,1
103511,50340,Meilleur / Sauvé,45.540138,-73.663956,1
103512,50341,Sauvé / Meilleur,45.540450,-73.664312,1
103515,50342,Sauvé / Meilleur,45.540662,-73.663885,1
103518,50343,Meilleur / Sauvé,45.539972,-73.663787,1
103521,50344,Saint-Hubert / Prieur,45.557233,-73.663108,1
103523,50345,Saint-Hubert / Prieur,45.557205,-73.663470,2
103532,50346,Sauvé / Verville,45.541678,-73.663466,1
103542,50347,Fleury / D'Auteuil,45.551285,-73.663282,1
103544,50348,Fleury / D'Auteuil,45.550938,-73.663306,1
103551,50349,Christophe-Colomb / Henri-Bourassa,45.562482,-73.661701,1
103552,50350,Henri-Bourassa / Christophe-Colomb,45.562812,-73.662532,1
103554,50351,Henri-Bourassa / Christophe-Colomb,45.562444,-73.662481,1
103562,50353,Sauvé / Tolhurst,45.542853,-73.662790,1
103564,50354,Sauvé / Tolhurst,45.542611,-73.662738,1
103571,50355,Saint-Laurent / Sauriol,45.547823,-73.662316,1
103573,50356,Saint-Laurent / Sauriol,45.547763,-73.662715,1
103582,50357,Fleury / Lajeunesse,45.553118,-73.662190,1
103583,50358,Berri / Fleury,45.552655,-73.662566,1
103584,50359,Fleury / Berri,45.552508,-73.662360,1
103591,50360,Lajeunesse / Fleury,45.553330,-73.661464,1
103601,50361,Charles-De La Tour / de Louvain,45.531899,-73.661976,1
103602,50362,de Louvain / Charles-De La Tour,45.532136,-73.662152,1
103612,50363,Henri-Bourassa / Hamel,45.564220,-73.661696,1
103614,50364,Henri-Bourassa / Hamel,45.563849,-73.661440,1
103622,50365,Sauvé / de l'Esplanade,45.544295,-73.661585,1
103632,50366,Henri-Bourassa / Francis,45.565563,-73.661030,1
103634,50367,Henri-Bourassa / Francis,45.565205,-73.660756,1
103642,50368,Fleury / Millen,45.555024,-73.661069,1
103644,50369,Fleury / Millen,45.554633,-73.661110,1
103654,50370,Sauvé / Waverly,45.544295,-73.661404,1
103661,50371,Meilleur / de Port-Royal,45.539319,-73.661048,1
103663,50372,Meilleur / de Port-Royal,45.539276,-73.661396,2
103672,50373,Sauvé / Saint-Urbain,45.545528,-73.660860,1
103691,50374,Christophe-Colomb / Prieur,45.562061,-73.660258,1
103693,50375,Christophe-Colomb / Prieur,45.562019,-73.660653,2
103704,50376,Gouin / Séguin,45.572119,-73.659906,1
103711,50377,Station De la Savane (Décarie / de Sorel),45.500243,-73.661726,1
103723,50378,de l'Acadie / de Louvain,45.534388,-73.660987,1
103724,50379,de Louvain / de l'Acadie,45.533597,-73.661093,1
103726,50380,de l'Acadie / de Louvain,45.534691,-73.661144,1
103727,50381,de Louvain / de l'Acadie,45.533785,-73.661166,1
103734,50382,Sauvé / Clark,45.545969,-73.660436,2
103741,50383,Saint-Hubert / Fleury,45.556329,-73.660022,1
103742,50384,Fleury / Saint-Hubert,45.556566,-73.660161,1
103743,50385,Saint-Hubert / Fleury,45.556317,-73.660431,1
103744,50386,Fleury / Saint-Hubert,45.556184,-73.660199,1
103752,50387,Henri-Bourassa / du Fort-Lorette,45.567825,-73.659922,1
103754,50388,Henri-Bourassa / du Fort-Lorette,45.567499,-73.659641,1
103768,50389,De Saint-Firmin / Gouin,45.573533,-73.658648,1
103771,50390,Saint-Laurent / Sauvé,45.546952,-73.659487,1
103772,50391,Sauvé / Saint-Laurent,45.547129,-73.659863,1
103773,50392,Saint-Laurent / Sauvé,45.546953,-73.660089,1
103775,50393,Sauvé / Grande Allée,45.547425,-73.659353,1
103783,50394,Berri / Sauriol,45.551756,-73.659457,1
103792,50395,Fleury / Georges-Baril,45.558504,-73.659019,1
103794,50396,Fleury / Georges-Baril,45.558276,-73.658966,1
103800,50397,Royalmount / Biotech,45.486602,-73.675424,1
103803,50398,Station de la Savane (Décarie / Royalmount),45.498837,-73.660885,1
103811,50399,Papineau / Henri-Bourassa,45.570240,-73.658096,1
103814,50400,Henri-Bourassa / Papineau,45.569476,-73.658639,1
103816,50401,Papineau / Henri-Bourassa,45.570725,-73.659106,1
103821,50402,Lajeunesse / Sauriol,45.552517,-73.658663,1
103832,50403,Sauvé / Laverdure,45.548800,-73.658779,1
103834,50404,Sauvé / Laverdure,45.548454,-73.658713,1
103848,50405,Meilleur / de Louvain,45.538289,-73.658149,1
103852,50406,Fleury / Chambord,45.559879,-73.658215,1
103854,50407,Fleury / Chambord,45.559613,-73.658182,1
103862,50408,Henri-Bourassa / Séguin,45.571551,-73.658032,1
103864,50409,Henri-Bourassa / Séguin,45.571133,-73.657785,1
103871,50410,Décarie / de la Savane,45.498845,-73.659552,1
103881,50411,Charles-De La Tour / Chabanel,45.530877,-73.658471,1
103883,50412,Charles-De La Tour / Chabanel,45.530848,-73.658823,1
103892,50413,Henri-Bourassa / De Saint-Firmin,45.573080,-73.657268,1
103893,50414,De Saint-Firmin / Henri-Bourassa,45.572969,-73.657448,1
103894,50415,Henri-Bourassa / De Saint-Firmin,45.572635,-73.657032,1
103901,50416,Christophe-Colomb / Fleury,45.561153,-73.657151,1
103902,50417,Fleury / Christophe-Colomb,45.561288,-73.657380,1
103903,50418,Christophe-Colomb / Fleury,45.561119,-73.657573,1
103904,50419,Fleury / Christophe-Colomb,45.560954,-73.657389,1
103911,50420,Saint-Hubert / Sauriol,45.555438,-73.656974,1
103913,50421,Saint-Hubert / Sauriol,45.555401,-73.657312,1
103921,50422,Saint-Laurent / de Port-Royal,45.546218,-73.656949,1
103923,50423,Saint-Laurent / de Port-Royal,45.546176,-73.657432,1
103932,50424,Fleury / Hamel,45.562665,-73.656564,1
103934,50425,Fleury / Hamel,45.562399,-73.656533,1
103940,50426,Chabanel / de l'Acadie,45.533790,-73.656754,1
103943,50427,de l'Acadie / Chabanel,45.533390,-73.657604,1
103946,50428,de l'Acadie / Chabanel,45.533700,-73.657720,1
103962,50429,Henri-Bourassa / Parthenais,45.575181,-73.655938,1
103964,50430,Henri-Bourassa / Parthenais,45.574751,-73.655773,1
103981,50431,Papineau / Prieur,45.569139,-73.655548,1
103992,50433,Fleury / Francis,45.564000,-73.655774,1
103994,50434,Fleury / Francis,45.563746,-73.655734,1
104001,50435,Décarie / Ferrier,45.497554,-73.657485,1
104003,50436,Décarie / Ferrier,45.497236,-73.658362,1
104013,50437,Station Sauvé Nord (Berri / Sauvé),45.550862,-73.656363,1
104014,50438,Station Sauvé Sud (Sauvé / Berri),45.550476,-73.656161,1
104017,50439,Station Sauvé Nord (Sauvé / Berri),45.550577,-73.656445,1
104018,50440,Station Sauvé Sud (Sauvé / Berri),45.550643,-73.655392,1
104021,50441,Station Sauvé Sud (Lajeunesse / Sauvé),45.551528,-73.655261,1
104022,50442,Sauvé / Lajeunesse,45.551695,-73.655548,1
104024,50443,Sauvé / Lajeunesse,45.551378,-73.655427,1
104032,50444,Henri-Bourassa / de Lille,45.576966,-73.654579,1
104034,50445,Henri-Bourassa / de Lille,45.576530,-73.654420,1
104042,50446,Sauvé / Millen,45.553230,-73.654921,1
104044,50447,Sauvé / Millen,45.552881,-73.654937,1
104054,50448,Chabanel / Meilleur (gare Chabanel),45.537321,-73.655132,1
104056,50449,Meilleur / Chabanel,45.537700,-73.655658,1
104057,50450,Chabanel / Meilleur (gare Chabanel),45.537280,-73.655461,1
104058,50451,Meilleur / No 9200,45.537088,-73.653918,1
104062,50452,Fleury / Garnier,45.566417,-73.654436,1
104071,50453,Charles-De La Tour / Legendre,45.529831,-73.654886,1
104073,50454,Charles-De La Tour / Legendre,45.529832,-73.655320,1
104083,50455,Saint-Laurent / Garage Legendre,45.545490,-73.655050,1
104084,50456,de Louvain / Saint-Laurent,45.545101,-73.654892,1
104086,50457,Saint-Laurent / de Louvain,45.545508,-73.654482,1
104089,50458,de Louvain / No 7,45.545161,-73.655051,1
104094,50459,Fleury / Fabre,45.566600,-73.654149,1
104101,50460,Christophe-Colomb / Sauriol,45.560254,-73.654077,1
104103,50461,Christophe-Colomb / Sauriol,45.560219,-73.654496,1
104123,50463,De Saint-Firmin / Prieur,45.571527,-73.654113,1
104132,50464,Henri-Bourassa / D'Iberville,45.578225,-73.653621,1
104134,50465,Henri-Bourassa / D'Iberville,45.577845,-73.653422,1
104141,50466,Saint-Hubert / Sauvé,45.554500,-73.653764,1
104142,50467,Sauvé / Saint-Hubert,45.554657,-73.654081,1
104143,50468,Saint-Hubert / Sauvé,45.554518,-73.654292,1
104144,50469,Sauvé / Saint-Hubert,45.554398,-73.654063,1
104151,50470,Papineau / Fleury,45.568173,-73.653227,1
104152,50471,Fleury / Papineau,45.568350,-73.653370,1
104153,50472,Papineau / Fleury,45.568086,-73.653632,1
104154,50473,Fleury / Papineau,45.567912,-73.653437,1
104170,50474,Berri / No 9592,45.550115,-73.653554,1
104181,50475,Décarie / Paré,45.496095,-73.655147,1
104182,50476,Paré / Décarie,45.496524,-73.655014,1
104183,50477,Décarie / Paré,45.495780,-73.656070,1
104184,50478,Paré / Décarie,45.495628,-73.655939,1
104187,50479,Paré / Décarie,45.495412,-73.656404,1
104188,50480,Décarie / Paré,45.495494,-73.655629,2
104191,50481,de l'Acadie / Legendre,45.532712,-73.654341,1
104193,50482,de l'Acadie / Legendre,45.532287,-73.653867,1
104202,50483,Henri-Bourassa / Sackville,45.579451,-73.652694,1
104204,50484,Henri-Bourassa / Sackville,45.579217,-73.652382,1
104212,50485,Fleury / Charton,45.569694,-73.652550,1
104214,50486,Fleury / Charton,45.569327,-73.652603,1
104222,50487,Sauvé / Georges-Baril,45.556720,-73.652861,1
104224,50488,Sauvé / Georges-Baril,45.556468,-73.652841,1
104237,50489,Connaught / Westmore,45.461255,-73.655409,1
104253,50491,Charles-De La Tour / De Beauharnois,45.529188,-73.653124,1
104262,50492,Sauvé / Chambord,45.558080,-73.652055,1
104264,50493,Sauvé / Chambord,45.557825,-73.652034,1
104282,50494,Henri-Bourassa / J.-J.-Gagnier,45.581752,-73.651352,1
104284,50495,Henri-Bourassa / J.-J.-Gagnier,45.581274,-73.651136,1
104302,50496,Fleury / De Lorimier,45.571277,-73.651171,1
104304,50497,Fleury / De Lorimier,45.571025,-73.651221,1
104320,50498,Meilleur / No 9200,45.537161,-73.653765,1
104331,50500,Mountain Sights / Buchan,45.496825,-73.652979,1
104343,50501,Berri / de Louvain,45.549603,-73.651767,1
104351,50502,Christophe-Colomb / Sauvé,45.559363,-73.651009,1
104352,50503,Sauvé / Christophe-Colomb,45.559486,-73.651208,1
104353,50504,Christophe-Colomb / Sauvé,45.559327,-73.651443,1
104354,50505,Sauvé / Christophe-Colomb,45.559138,-73.651248,1
104361,50506,Station Namur (Décarie / Jean-Talon),45.494585,-73.652580,1
104362,50507,Station Namur (Jean-Talon / Décarie),45.494843,-73.652760,1
104363,50508,Station Namur (Décarie / Jean-Talon),45.494251,-73.653664,1
104365,50509,Jean-Talon / Mountain Sights,45.495284,-73.651867,1
104366,50510,Station Namur (Décarie / Jean-Talon),45.495259,-73.653745,1
104372,50511,Legendre / du Parc,45.537445,-73.651575,1
104374,50512,Legendre / du Parc,45.537205,-73.651566,2
104402,50513,Henri-Bourassa / Saint-Michel,45.584355,-73.650362,1
104404,50514,Henri-Bourassa / Poitras,45.583479,-73.650276,1
104405,50515,Henri-Bourassa / Saint-Michel,45.584348,-73.649916,1
104411,50516,Papineau / Sauriol,45.566957,-73.650301,1
104413,50517,Papineau / Sauriol,45.566872,-73.650712,1
104421,50518,Saint-Laurent / Chabanel,45.544455,-73.650826,1
104423,50519,Saint-Laurent / Chabanel,45.544433,-73.651376,1
104432,50521,Fleury / Parthenais,45.572646,-73.650016,1
104434,50522,Fleury / Parthenais,45.572334,-73.650113,1
104442,50523,Legendre / Jeanne-Mance,45.538670,-73.650854,1
104444,50524,Legendre / Jeanne-Mance,45.538467,-73.650827,1
104451,50525,West Broadway / Chester,45.461395,-73.652627,1
104454,50526,Chester / West Broadway,45.461229,-73.652858,1
104462,50527,Sauvé / Curotte,45.561537,-73.650002,1
104464,50528,Sauvé / Curotte,45.561286,-73.650000,1
104472,50529,Legendre / Meunier,45.539816,-73.650181,1
104474,50530,Legendre / Meunier,45.539614,-73.650150,1
104482,50531,Jean-Talon / Mountain Sights,45.495937,-73.651333,1
104483,50532,Mountain Sights / Jean-Talon,45.495909,-73.651739,1
104491,50533,Kindersley / Ostell-Crescent,45.502912,-73.651174,1
104493,50534,Kindersley / Ostell-Crescent,45.503210,-73.651414,1
104511,50535,Saint-Hubert / de Louvain,45.553209,-73.649186,1
104512,50536,de Louvain / Saint-Hubert,45.553455,-73.649555,1
104513,50537,Saint-Hubert / de Louvain,45.553190,-73.649755,1
104514,50538,de Louvain / Saint-Hubert,45.553039,-73.649550,1
104523,50539,de l'Acadie / Crémazie nord,45.531237,-73.650307,1
104542,50540,Fleury / de Lille,45.574364,-73.648561,1
104544,50541,Fleury / de Lille,45.574113,-73.648610,1
104552,50542,Sauvé / Garnier,45.563942,-73.648636,1
104554,50543,Sauvé / Garnier,45.563560,-73.648694,1
104562,50544,Vézina / Macdonald,45.489010,-73.650825,1
104572,50545,Legendre / de Reims,45.541561,-73.649165,1
104574,50546,Legendre / de Reims,45.541314,-73.649160,1
104582,50547,de la Savane / Kindersley,45.500701,-73.650271,1
104583,50548,Kindersley / de la Savane,45.500793,-73.650684,1
104602,50549,Crémazie / de l'Acadie,45.531412,-73.649672,1
104611,50550,Clanranald / Vézina,45.489381,-73.649755,1
104623,50551,Berri / Chabanel,45.548722,-73.648693,1
104630,50552,du Parc / No 6590,45.527892,-73.615281,1
104631,50553,du Parc / De Beauharnois,45.536422,-73.648345,1
104633,50554,du Parc / De Beauharnois,45.536282,-73.648232,1
104641,50555,Papineau / Sauvé,45.565748,-73.647396,1
104642,50556,Sauvé / Papineau,45.565913,-73.647540,1
104643,50557,Papineau / Sauvé,45.565656,-73.647786,1
104644,50558,Sauvé / Papineau,45.565489,-73.647623,1
104651,50559,Lajeunesse / Chabanel,45.549407,-73.647968,1
104664,50560,de la Savane / Victoria,45.500610,-73.649698,1
104684,50561,Crémazie / Acadie,45.530069,-73.647735,1
104691,50562,Saint-Laurent / Legendre,45.543558,-73.647716,1
104692,50563,Legendre / Saint-Laurent,45.543787,-73.647843,1
104693,50564,Saint-Laurent / Legendre,45.543497,-73.648125,1
104694,50565,Legendre / Saint-Laurent,45.543387,-73.647939,1
104695,50566,Legendre / Saint-Laurent,45.543847,-73.647669,1
104702,50567,Fleury / André-Jobin,45.576346,-73.646885,1
104704,50568,Fleury / André-Jobin,45.576055,-73.646967,1
104711,50569,Walkley / Côte-Saint-Luc,45.469695,-73.648803,1
104712,50570,Côte-Saint-Luc / Walkley,45.470154,-73.649721,1
104742,50571,Sauvé / Charton,45.567179,-73.646728,1
104744,50572,Sauvé / Charton,45.566931,-73.646767,1
104751,50573,de l'Acadie / Crémazie sud,45.530367,-73.646836,1
104771,50574,Christophe-Colomb / de Louvain,45.557952,-73.646196,1
104773,50575,Christophe-Colomb / de Louvain,45.557911,-73.646801,1
104781,50576,West Broadway / Fielding,45.459892,-73.648730,1
104782,50577,Fielding / O'Bryan,45.460473,-73.649039,1
104783,50578,West Broadway / Fielding,45.460045,-73.649502,1
104794,50579,Crémazie / d'Outremont,45.532592,-73.647010,1
104801,50580,Victoria / Jean-Talon,45.498938,-73.647641,1
104802,50581,Jean-Talon / Victoria,45.499180,-73.647978,1
104803,50582,Victoria / Jean-Talon,45.499010,-73.648317,1
104804,50583,Jean-Talon / Victoria,45.498641,-73.648075,1
104813,50584,Macdonald / Plamondon,45.487679,-73.648369,1
104821,50585,Saint-Hubert / Chabanel,45.552367,-73.646206,1
104823,50586,Saint-Hubert / Chabanel,45.552306,-73.646619,1
104839,50587,Jean-Talon / No 4855,45.498549,-73.648491,1
104841,50588,Champagneur / Crémazie,45.533113,-73.646240,1
104852,50589,Legendre / Henri-Julien,45.546378,-73.646371,2
104854,50590,Legendre / Henri-Julien,45.546070,-73.646386,1
104861,50591,Décarie / Vézina,45.492084,-73.647445,1
104872,50592,Fleury / Larose,45.578382,-73.645184,1
104874,50593,Fleury / Larose,45.578066,-73.645280,1
104882,50594,Sauvé / De Lorimier,45.568828,-73.645333,1
104884,50595,Sauvé / De Lorimier,45.568582,-73.645375,1
104892,50596,Fielding / Doherty,45.461284,-73.648401,1
104894,50597,Fielding / Doherty,45.460928,-73.648144,1
104901,50598,Clanranald / Plamondon,45.488336,-73.647428,1
104923,50599,Décarie / Vézina,45.491627,-73.647740,1
104932,50600,Legendre / Berri,45.547982,-73.645440,1
104933,50601,Berri / Legendre,45.547836,-73.645603,1
104934,50602,Legendre / Berri,45.547654,-73.645477,1
104941,50603,Cavendish / Côte-Saint-Luc,45.471568,-73.647508,1
104942,50604,Côte-Saint-Luc / Cavendish,45.471882,-73.647726,1
104943,50605,Cavendish / Côte-Saint-Luc,45.471766,-73.648305,1
104944,50606,Côte-Saint-Luc / Robinson,45.471370,-73.648038,1
104953,50607,McLynn / Plamondon,45.489166,-73.647316,1
104962,50608,Jean-Talon / de la Savane,45.500658,-73.646550,1
104964,50609,Jean-Talon / de la Savane,45.499982,-73.646904,1
104971,50610,Papineau / Charland,45.564499,-73.644386,1
104972,50611,Charland / Charton,45.565664,-73.644038,1
104973,50612,Papineau / Charland,45.564542,-73.645070,1
104982,50613,Fielding / Saint-Ignatius,45.462345,-73.647571,1
104984,50614,Fielding/Saint-Ignatius,45.461984,-73.647317,1
104991,50615,Lajeunesse / Legendre,45.548506,-73.644871,1
105012,50616,Sauvé / Parthenais,45.570262,-73.644139,1
105014,50617,Sauvé / Parthenais,45.569845,-73.644270,1
105022,50618,Chester / Walkley,45.469072,-73.646892,1
105031,50619,Saint-Laurent / De Beauharnois,45.542712,-73.644640,1
105033,50620,Saint-Laurent / De Beauharnois,45.542606,-73.645029,1
105042,50621,Crémazie / Tolhurst,45.537550,-73.644619,1
105052,50622,Fielding / Coronation,45.463476,-73.646597,1
105054,50623,Fielding / Coronation,45.463133,-73.646421,1
105061,50624,Jeanne-Mance / Crémazie,45.536617,-73.644198,1
105072,50625,Sauvé / Rancourt,45.571313,-73.643221,1
105082,50626,Côte-Saint-Luc / Randall,45.473036,-73.646255,1
105084,50627,Côte-Saint-Luc / Randall,45.472687,-73.646355,1
105091,50628,Décarie / Plamondon,45.491041,-73.645077,1
105092,50629,Plamondon / Décarie,45.491345,-73.645181,1
105094,50630,Plamondon / Décarie,45.490595,-73.645485,1
105095,50631,Plamondon / Trans Island,45.491493,-73.644847,1
105101,50632,de l'Acadie / de Liège,45.529512,-73.643837,1
105103,50633,de l'Acadie/de Liège,45.529400,-73.644228,1
105114,50634,Sauvé / de Lille,45.571671,-73.642753,1
105118,50635,de Lille / Sauvé,45.571580,-73.642328,1
105121,50636,Cavendish / Chester,45.470733,-73.645347,1
105122,50637,Chester / Cavendish,45.470848,-73.645505,1
105123,50638,Cavendish / Chester,45.470704,-73.645719,1
105131,50639,Christophe-Colomb / Chabanel,45.557037,-73.642945,1
105133,50640,Christophe-Colomb / Chabanel,45.556937,-73.643353,1
105142,50641,Van Horne / Macdonald,45.486373,-73.645120,1
105143,50642,MacDonald / Fleet,45.486307,-73.645318,1
105144,50643,Fleet / Macdonald,45.486138,-73.645128,2
105151,50644,Saint-Hubert / Legendre,45.551515,-73.643188,1
105153,50645,Saint-Hubert / Legendre,45.551442,-73.643557,1
105161,50646,Papineau / de Louvain,45.563555,-73.642199,1
105168,50647,Papineau / de Louvain,45.563197,-73.642004,1
105171,50648,West Broadway / Somerled,45.458560,-73.645283,1
105172,50649,Somerled / West Broadway,45.458733,-73.645466,1
105173,50650,West Broadway / Somerled,45.458570,-73.645685,1
105175,50651,Somerled / O'Bryan,45.458891,-73.645176,1
105182,50652,Charland / De Lorimier,45.567626,-73.642377,1
105184,50653,Charland / De Lorimier,45.567366,-73.642432,1
105191,50654,Victoria / Mackenzie,45.497342,-73.644090,1
105193,50655,Victoria / Mackenzie,45.497348,-73.644547,1
105202,50656,Crémazie / de l'Esplanade,45.538652,-73.643911,1
105204,50657,Crémazie / de l'Esplanade,45.538640,-73.643134,1
105211,50658,Clanranald / Van Horne,45.486946,-73.644339,1
105212,50659,Van Horne / Clanranald,45.487088,-73.644471,1
105214,50660,Van Horne / Clanranald,45.486828,-73.644534,1
105222,50661,Fielding / Rosedale,45.465488,-73.644978,1
105224,50662,Fielding / Rosedale,45.465209,-73.644944,1
105232,50663,Barclay / Westbury,45.493127,-73.644019,1
105242,50664,Crémazie / Clark,45.541009,-73.642400,1
105245,50665,Crémazie / Clark,45.540890,-73.641686,1
105252,50666,Sauvé / D'Iberville,45.573188,-73.641641,1
105254,50667,Sauvé / D'Iberville,45.572946,-73.641661,1
105261,50668,Saint-Laurent / Crémazie,45.542509,-73.641199,1
105262,50669,Crémazie / Saint-Laurent,45.542554,-73.641410,1
105263,50670,Saint-Laurent / Crémazie,45.541112,-73.641811,1
105265,50671,Crémazie / Saint-Laurent,45.541899,-73.641045,1
105273,50672,Berri / Émile-Journault,45.546968,-73.642576,1
105282,50673,Somerled / Doherty,45.459863,-73.644579,1
105284,50674,Somerled / Doherty,45.459595,-73.644624,1
105291,50675,Jeanne-Mance / Bellarmin,45.536073,-73.642322,1
105301,50676,Champagneur / de Liège,45.532048,-73.642316,1
105323,50677,Randall / Chester,45.472529,-73.644315,1
105331,50678,Lajeunesse / Émile-Journault,45.547588,-73.641717,1
105332,50679,Émile-Journault / Lajeunesse,45.547826,-73.641892,1
105344,50680,Plamondon / Barclay,45.492373,-73.644044,1
105364,50681,Crémazie / de Reims,45.539811,-73.642380,1
105372,50682,de Liège / De l'Épée,45.533273,-73.641852,1
105382,50683,Barclay / Lemieux,45.494540,-73.642912,1
105392,50684,Van Horne / Coolbrook,45.488670,-73.643039,1
105412,50685,Sauvé / Sackville,45.574586,-73.640468,1
105414,50686,Sauvé / Sackville,45.574309,-73.640517,1
105434,50687,Émile-Journault / Millen,45.549086,-73.641041,1
105442,50688,Fielding / Walkley,45.467638,-73.643292,1
105444,50689,Fielding / Walkley,45.467230,-73.643380,1
105451,50690,Victoria / Bouchette,45.496469,-73.642183,1
105453,50691,Victoria / Bouchette,45.496493,-73.642564,1
105461,50692,Côte-des-Neiges / Jean-Talon,45.505260,-73.641825,1
105462,50693,Jean-Talon / Laird,45.505561,-73.642060,1
105465,50694,Jean-Talon / Côte-des-Neiges,45.505755,-73.641454,1
105482,50695,Somerled / Coronation,45.462019,-73.642885,1
105484,50696,Somerled / Coronation,45.461806,-73.642890,1
105494,50697,Plamondon / Lemieux,45.493902,-73.642019,1
105501,50698,de l'Acadie / d'Anvers,45.528609,-73.640757,1
105503,50699,de l'Acadie/d'Anvers,45.528491,-73.641139,1
105511,50700,Décarie / Van Horne,45.489648,-73.641954,1
105512,50701,Van Horne / Décarie,45.489977,-73.642040,1
105513,50702,Décarie / Van Horne,45.489348,-73.642541,1
105514,50703,Van Horne / Décarie,45.489212,-73.642381,1
105522,50704,Charland / de Lille,45.570772,-73.639714,1
105523,50705,de Lille / Charland,45.570646,-73.640093,1
105524,50706,Charland / de Lille,45.570402,-73.639863,1
105531,50707,Saint-Hubert / Émile-Journault,45.550616,-73.639997,1
105532,50708,Émile-Journault / Marcel-Cadieux,45.550952,-73.640076,1
105533,50709,Saint-Hubert / Émile-Journault,45.550554,-73.640432,1
105534,50710,Émile-Journault / Saint-Hubert,45.550367,-73.640269,1
105537,50711,Émile-Journault / De Chateaubriand,45.550044,-73.640639,1
105541,50712,Christophe-Colomb / Legendre,45.556231,-73.640089,1
105543,50713,Christophe-Colomb / Legendre,45.556155,-73.640574,1
105553,50714,Macdonald / Hampstead,45.484886,-73.642157,1
105562,50715,de Liège / Jeanne-Mance,45.535636,-73.640476,1
105571,50716,West Broadway / de Terrebonne,45.457449,-73.642413,1
105573,50717,West Broadway / de Terrebonne,45.457453,-73.642795,1
105582,50718,Sauvé / J.-J.-Gagnier,45.576103,-73.639199,1
105584,50719,Sauvé / Larose,45.575626,-73.639417,1
105594,50720,Crémazie / Casgrain,45.542774,-73.640473,1
105602,50721,Station Plamondon Nord (Barclay / Victoria),45.496188,-73.641440,1
105614,50722,Van Horne / Décarie,45.489869,-73.641890,1
105622,50723,Sherbrooke / Connaught,45.454061,-73.642325,1
105641,50724,Cavendish / Fielding,45.469317,-73.641699,1
105642,50725,Fielding / Cavendish,45.469449,-73.641849,1
105643,50726,Cavendish / Fielding,45.469286,-73.642061,1
105644,50727,Fielding / Cavendish,45.469159,-73.641912,1
105651,50728,Clanranald / Bourret,45.485534,-73.641194,1
105662,50729,Somerled / Mariette,45.463416,-73.641800,1
105664,50730,Somerled / Mariette,45.463130,-73.641861,1
105672,50731,Charland / D'Iberville,45.572031,-73.638651,1
105681,50732,Saint-Michel / Sauvé,45.576824,-73.638249,1
105683,50733,Saint-Michel / Sauvé,45.576805,-73.638762,1
105694,50734,Crémazie / Henri-Julien,45.543969,-73.639595,1
105712,50735,Jean-Talon / Mulberry,45.506614,-73.640067,2
105721,50736,Station Plamondon Nord (Victoria / Plamondon),45.495654,-73.640352,1
105723,50737,Station Plamondon Nord (Victoria / Plamondon),45.495671,-73.640721,1
105724,50738,Station Plamondon Nord (Plamondon / Victoria),45.495518,-73.640577,1
105731,50739,Champagneur / d'Anvers,45.531195,-73.639202,1
105747,50740,de Liège / de l'Esplanade,45.537408,-73.639500,1
105751,50741,Gare Montréal-Ouest,45.454553,-73.641462,1
105762,50744,Van Horne / Westbury,45.491427,-73.640452,1
105764,50745,Van Horne / Westbury,45.491209,-73.640527,1
105774,50746,Jean-Talon / Frobisher,45.506382,-73.640140,1
105782,50747,Sherbrooke / Patricia,45.455402,-73.641252,1
105793,50748,Bloomfield / d'Anvers,45.531752,-73.639255,1
105802,50749,Somerled / King-Edward,45.464742,-73.640777,1
105804,50750,Somerled / King-Edward,45.464564,-73.640744,1
105812,50751,de Liège / de Reims,45.538926,-73.638630,1
105824,50752,Côte-Saint-Luc / Hingston,45.476056,-73.640421,1
105832,50753,Barclay / Lavoie,45.498247,-73.639599,1
105842,50754,Charland / Sackville,45.573362,-73.637540,1
105844,50755,Charland / Sackville,45.573106,-73.637587,1
105851,50756,Saint-Denis / Crémazie,45.545276,-73.638251,1
105858,50758,Station Crémazie Sud (Saint-Denis / Crémazie),45.545085,-73.638169,1
105884,50760,Station Crémazie Nord / voie des bus,45.546234,-73.639266,1
105892,50761,Fielding / West Hill,45.471853,-73.640031,1
105895,50762,Fielding / West Hill,45.472029,-73.639841,1
105902,50763,Sherbrooke / West Broadway,45.456692,-73.640198,1
105903,50764,West Broadway / Sherbrooke,45.456564,-73.640494,1
105904,50765,Sherbrooke / West Broadway,45.456421,-73.640193,1
105906,50766,West Broadway / Sherbrooke,45.456750,-73.640602,1
105912,50767,Station Crémazie Nord (Crémazie / Berri),45.545705,-73.638939,1
105913,50768,Station Crémazie Nord (Berri / Crémazie),45.545445,-73.639253,1
105914,50769,Station Crémazie Sud (Crémazie / Berri),45.545619,-73.638165,1
105915,50770,Station Crémazie Sud (Crémazie / Berri),45.546138,-73.637714,1
105921,50772,Christophe-Colomb / Émile-Journault,45.555384,-73.637096,1
105922,50773,Émile-Journault / Christophe-Colomb,45.555732,-73.637224,1
105923,50774,Christophe-Colomb / Émile-Journault,45.555359,-73.637766,1
105926,50775,Christophe-Colomb / Émile-Journault,45.555589,-73.637820,1
105942,50776,Côte-Saint-Luc / Heath,45.476767,-73.638984,1
105952,50777,Van Horne / Lemieux,45.492817,-73.639119,1
105954,50778,Van Horne / Lemieux,45.492482,-73.639207,1
105961,50779,de l'Acadie / Jarry,45.527700,-73.637636,1
105963,50780,de l'Acadie / de l'Acadie,45.527585,-73.638126,2
105965,50781,Jarry / de l'Acadie,45.527919,-73.637606,1
105966,50782,Jarry / de l'Acadie,45.527955,-73.637821,1
105972,50783,Somerled / Walkley,45.466227,-73.639659,1
105974,50784,Somerled / Walkley,45.465966,-73.639662,1
105981,50785,Saint-Laurent / de Liège,45.540771,-73.637327,1
105983,50786,Saint-Laurent / de Liège,45.540666,-73.637724,1
105987,50787,de Liège / Clark,45.540288,-73.637862,1
105988,50788,Saint-Laurent / de Liège,45.540504,-73.637173,1
105991,50789,Côte-des-Neiges / Mackenzie,45.503626,-73.638093,1
106001,50790,Décarie / Bourret,45.488277,-73.638883,1
106014,50791,Plamondon / Lavoie,45.497565,-73.638745,1
106020,50792,Station Crémazie Nord / voie des bus,45.546503,-73.638938,1
106026,50793,Station Crémazie Nord (Lajeunesse / Crémazie),45.546668,-73.638544,1
106027,50794,Station Crémazie Nord (Crémazie / Lajeunesse),45.545920,-73.638751,1
106033,50795,MacDonald / Langhorne,45.483527,-73.639143,1
106041,50796,Grand Boulevard / Fielding,45.473676,-73.638696,1
106042,50797,Fielding / Grand Boulevard,45.473909,-73.639086,1
106043,50798,Grand Boulevard / Fielding,45.473852,-73.639431,1
106044,50799,Fielding / Grand Boulevard,45.473655,-73.639143,1
106051,50800,Elmhurst / Harley,45.454216,-73.639214,1
106058,50801,Elmhurst / Harley,45.454194,-73.639418,1
106062,50802,Charland / J.-J.-Gagnier,45.575168,-73.636025,1
106064,50803,Charland / J.-J.-Gagnier,45.574937,-73.636052,1
106081,50804,Papineau / Legendre,45.560905,-73.636090,1
106083,50805,Papineau/Legendre,45.560827,-73.636546,1
106093,50806,Décarie / Lucy,45.487536,-73.638478,1
106102,50807,Barclay / Légaré,45.500209,-73.637838,1
106112,50808,Jarry / Wiseman,45.529316,-73.637021,1
106114,50809,Jarry / Wiseman,45.529082,-73.636920,1
106123,50810,Côte-des-Neiges / de Bedford,45.503421,-73.638104,1
106152,50812,Crémazie / Foucher,45.547621,-73.637287,1
106154,50813,Crémazie / Foucher,45.547274,-73.636742,1
106161,50814,Saint-Michel / Charland,45.575470,-73.635011,1
106168,50815,Saint-Michel / Charland,45.575242,-73.635028,1
106172,50816,de Liège / De Gaspé,45.542605,-73.636522,1
106181,50817,Station Plamondon Sud (Victoria / Van Horne),45.494347,-73.637428,1
106183,50818,Station Plamondon Sud (Victoria / Van Horne),45.494388,-73.637840,1
106184,50819,Station Plamondon Sud (Van Horne / Victoria),45.494232,-73.637641,1
106187,50820,Station Plamondon Sud (Van Horne / Victoria),45.494105,-73.637966,1
106192,50821,Jean-Talon / de Dieppe,45.508321,-73.637249,1
106194,50822,Jean-Talon / de Dieppe,45.508045,-73.637219,1
106202,50823,Somerled / Cavendish,45.468032,-73.638221,1
106203,50824,Cavendish / Somerled,45.467877,-73.638433,1
106204,50825,Somerled / Cavendish,45.467729,-73.638228,1
106206,50826,Cavendish / Somerled,45.468100,-73.638570,1
106212,50827,Fielding / Hingston,45.475192,-73.637929,1
106214,50828,Fielding / Hingston,45.474963,-73.637969,1
106221,50829,Champagneur / Jarry,45.530288,-73.636116,1
106222,50830,Jarry / Bloomfield,45.530630,-73.636237,1
106230,50831,Sherbrooke / Campus Loyola,45.457527,-73.639056,1
106248,50832,Earnscliffe / Dupuis,45.484832,-73.637099,1
106252,50833,Émile-Journault / André-Grasset,45.557743,-73.635452,1
106254,50834,Émile-Journault / André-Grasset,45.557461,-73.635502,1
106261,50835,Décarie / Côte-Sainte-Catherine,45.487489,-73.637072,1
106274,50836,Plamondon / Légaré,45.499570,-73.636945,1
106283,50837,Bloomfield / Jarry,45.530865,-73.636202,1
106284,50838,Jarry / Bloomfield,45.530700,-73.635963,1
106295,50839,Goyer / Côte-des-Neiges,45.503386,-73.636392,1
106301,50840,Saint-Denis / de Liège,45.544410,-73.635237,1
106302,50841,de Liège / Saint-Denis,45.544497,-73.635417,1
106303,50842,Saint-Denis / de Liège,45.544340,-73.635575,1
106312,50843,Jarry / de l'Épée,45.531528,-73.635712,1
106322,50844,Somerled / Borden,45.469188,-73.637296,1
106324,50845,Somerled / Borden,45.468922,-73.637277,1
106334,50846,Côte-Sainte-Catherine / Trans Island,45.487901,-73.636814,1
106337,50847,Côte-Sainte-Catherine / Décarie,45.487646,-73.637294,1
106344,50848,Jarry / Querbes,45.531821,-73.635302,1
106352,50849,Saint-Jacques / Elmhurst,45.453474,-73.637183,1
106353,50850,Elmhurst / Saint-Jacques,45.453510,-73.637651,1
106354,50851,Saint-Jacques / Elmhurst,45.453210,-73.637613,1
106371,50852,Christophe-Colomb / Étienne-Blanchard,45.554688,-73.634635,1
106373,50853,Christophe-Colomb / Étienne-Blanchard,45.554609,-73.635108,1
106382,50854,Sherbrooke / Coronation,45.459768,-73.636616,1
106384,50855,Sherbrooke / Coronation,45.459423,-73.636777,1
106401,50856,Saint-Hubert / Crémazie,45.548914,-73.634149,1
106402,50857,Crémazie / Saint-Hubert,45.549386,-73.635149,1
106403,50858,Saint-Hubert / Crémazie,45.549206,-73.635601,1
106404,50859,Crémazie / Saint-Hubert,45.548786,-73.635055,1
106405,50860,Crémazie / Saint-Hubert,45.549276,-73.633950,2
106406,50861,Saint-Hubert / Crémazie,45.549400,-73.635695,1
106408,50862,Saint-Hubert / Crémazie,45.548807,-73.634238,1
106411,50863,Côte-des-Neiges / Barclay,45.502460,-73.635576,1
106412,50864,Barclay / Côte-des-Neiges,45.502599,-73.635713,1
106413,50865,Côte-des-Neiges / Barclay,45.502450,-73.635922,1
106422,50866,Van Horne / Lavoie,45.496505,-73.635825,1
106424,50867,Van Horne / Lavoie,45.496242,-73.635846,1
106431,50868,Saint-Laurent / Guizot,45.539887,-73.634293,1
106433,50869,Saint-Laurent / Guizot,45.539770,-73.634663,1
106452,50872,Côte-Sainte-Catherine / Westbury,45.489364,-73.635833,1
106454,50873,Côte-Sainte-Catherine / Westbury,45.489083,-73.635788,1
106461,50874,Victoria / De La Peltrie,45.493517,-73.635566,1
106463,50875,Victoria / De La Peltrie,45.493535,-73.635938,1
106471,50876,Papineau / Émile-Journault,45.559732,-73.633405,1
106473,50877,Papineau / Émile-Journault,45.559661,-73.633940,1
106474,50878,Émile-Journault / Papineau,45.559379,-73.633811,1
106481,50879,Saint-Michel / Champdoré,45.574101,-73.632705,1
106488,50880,Saint-Michel / Champdoré,45.573870,-73.632717,1
106492,50881,Somerled / Madison,45.470605,-73.635708,1
106494,50882,Somerled / Madison,45.470360,-73.635683,1
106504,50883,Plamondon / Côte-des-Neiges,45.501815,-73.634961,1
106512,50884,Côte-Sainte-Catherine / Lemieux,45.490826,-73.634625,1
106514,50885,Côte-Sainte-Catherine / Lemieux,45.490547,-73.634621,1
106524,50886,Goyer / Decelles,45.505785,-73.634271,1
106532,50887,de Monkland / Rosedale,45.461758,-73.635258,1
106534,50888,de Monkland / Rosedale,45.461522,-73.635292,1
106541,50889,Cavendish / de Terrebonne,45.466753,-73.635053,1
106543,50890,Cavendish / de Terrebonne,45.466727,-73.635422,1
106552,50891,Jarry / de l'Esplanade,45.536117,-73.633076,1
106553,50892,de l'Esplanade / Guizot,45.536493,-73.635386,1
106554,50893,Jarry / de l'Esplanade,45.535759,-73.633044,1
106556,50894,de l'Esplanade / Guizot,45.536617,-73.635172,1
106564,50895,Côte-Saint-Luc / Draper,45.476898,-73.635012,1
106571,50896,Champagneur / Ball,45.529383,-73.633002,1
106581,50897,Clanranald / Isabella,45.482493,-73.634439,1
106582,50898,Clanranald / Isabella,45.482927,-73.635406,1
106592,50899,Sherbrooke / Mariette,45.460659,-73.634937,1
106594,50900,Sherbrooke / Mariette,45.460333,-73.635212,1
106602,50901,Van Horne / Légaré,45.498528,-73.634014,1
106604,50902,Van Horne / Légaré,45.498260,-73.634045,1
106611,50903,Côte-des-Neiges / Carlton,45.501617,-73.633692,1
106618,50904,Côte-des-Neiges / Carlton,45.501795,-73.634456,1
106621,50905,Décarie / Édouard-Montpetit,45.486167,-73.634026,1
106623,50906,Décarie / Édouard-Montpetit,45.485804,-73.634849,1
106633,50907,Bloomfield / Ball,45.529934,-73.633021,1
106641,50908,Saint-Hubert / de Liège,45.548344,-73.632222,1
106643,50909,Saint-Hubert / de Liège,45.548426,-73.632915,1
106651,50910,Grand Boulevard / Somerled,45.471752,-73.634341,1
106652,50911,Somerled / Grand Boulevard,45.471937,-73.634546,1
106653,50912,Grand Boulevard / Somerled,45.471802,-73.634778,1
106654,50913,Somerled / Grand Boulevard,45.471561,-73.634625,1
106661,50914,Saint-Denis / Guizot,45.543543,-73.632208,1
106663,50915,Saint-Denis / Guizot,45.543463,-73.632525,1
106692,50916,Barclay / Decelles,45.505568,-73.633182,1
106703,50917,Earnscliffe / Isabella,45.483468,-73.634045,1
106712,50918,Saint-Jacques / West Broadway,45.454412,-73.634083,1
106714,50919,Saint-Jacques / West Broadway,45.454149,-73.634424,1
106721,50920,Christophe-Colomb / Henri-Gauthier,45.553219,-73.631619,1
106723,50921,Christophe-Colomb / Henri-Gauthier,45.553257,-73.632063,1
106737,50922,Jean-Talon / de Dunkirk,45.512989,-73.633060,1
106741,50923,Station Côte-Sainte-Catherine Ouest,45.492315,-73.632875,1
106742,50924,Station Côte-Sainte-Catherine Ouest,45.492501,-73.633118,1
106743,50925,Station Côte-Sainte-Catherine Est,45.492372,-73.633330,2
106745,50926,Station Côte-Sainte-Catherine Ouest,45.492529,-73.632838,1
106754,50927,Goyer / Hudson,45.507338,-73.632810,1
106762,50928,Somerled / Hingston,45.473259,-73.633457,1
106772,50929,de Monkland / Walkley,45.463833,-73.633507,1
106774,50930,de Monkland / Walkley,45.463612,-73.633527,1
106781,50931,Saint-Michel / de Louvain,45.573008,-73.630218,1
106783,50932,Saint-Michel / de Louvain,45.572968,-73.630660,1
106797,50933,Jean-Talon / Wilderton,45.514079,-73.632085,1
106801,50934,Saint-Laurent / Jarry,45.538957,-73.631096,1
106802,50935,Jarry / Saint-Laurent,45.539087,-73.631353,1
106803,50936,Saint-Laurent / Jarry,45.538882,-73.631598,1
106804,50937,Jarry / Saint-Laurent,45.538631,-73.631384,1
106811,50938,de l'Acadie / Saint-Roch,45.525893,-73.631394,1
106813,50939,de l'Acadie / Saint-Roch,45.525787,-73.631806,1
106821,50940,Côte-des-Neiges / Van Horne,45.500855,-73.631993,1
106822,50941,Van Horne / Côte-des-Neiges,45.500997,-73.632173,1
106823,50942,Côte-des-Neiges / Van Horne,45.500876,-73.632403,1
106824,50943,Van Horne / Côte-des-Neiges,45.500681,-73.632200,1
106834,50944,Somerled / Hampton,45.473730,-73.632860,1
106842,50945,Sherbrooke / King-Edward,45.461744,-73.632882,1
106844,50946,Sherbrooke / King-Edward,45.461552,-73.632910,1
106852,50947,Barclay / Hudson,45.507169,-73.631804,1
106861,50948,Saint-Hubert / Leman,45.547796,-73.630489,1
106863,50949,Saint-Hubert / Leman,45.547764,-73.630818,1
106871,50950,Décarie / Isabella,45.485229,-73.632073,1
106873,50951,Décarie / Isabella,45.484950,-73.632696,1
106881,50952,Wilderton / Bates,45.513267,-73.631030,1
106911,50953,Cavendish / de Monkland,45.465179,-73.632058,1
106912,50954,de Monkland / Cavendish,45.465322,-73.632192,1
106913,50955,Cavendish / de Monkland,45.465163,-73.632426,1
106914,50956,de Monkland / Cavendish,45.465021,-73.632289,1
106922,50957,Jarry / De Gaspé,45.540809,-73.630347,1
106924,50958,Jarry / De Gaspé,45.540592,-73.630238,1
106942,50959,Côte-Sainte-Catherine / Lavoie,45.494501,-73.631321,1
106944,50960,Côte-Sainte-Catherine / Lavoie,45.494237,-73.631305,1
106952,50961,Crémazie / Christophe-Colomb,45.550886,-73.629459,1
106961,50962,Grand Boulevard / de Terrebonne,45.470548,-73.631579,1
106963,50963,Grand Boulevard / de Terrebonne,45.470539,-73.631947,1
106971,50964,Champagneur / Saint-Roch,45.528470,-73.629901,1
106981,50965,Clanranald / Queen-Mary,45.481041,-73.631188,1
106982,50966,Queen-Mary / Clanranald,45.481229,-73.631424,1
106994,50967,Somerled / Draper,45.475209,-73.631534,1
106997,50968,Somerled / Draper,45.475531,-73.631414,1
107005,50969,Goyer / Darlington,45.510103,-73.630183,1
107013,50970,Bloomfield / Saint-Roch,45.529041,-73.629954,1
107021,50971,Victoria / Saint-Kevin,45.491339,-73.630696,1
107023,50972,Victoria / Saint-Kevin,45.491354,-73.631051,1
107032,50973,Van Horne / Decelles,45.502958,-73.630473,1
107034,50974,Van Horne / Decelles,45.502711,-73.630481,1
107043,50975,Christophe-Colomb / Crémazie,45.550865,-73.629964,1
107044,50976,de Liège / Christophe-Colomb,45.550078,-73.629519,1
107045,50977,Crémazie / No 1200,45.550942,-73.627915,1
107046,50978,Christophe-Colomb / Crémazie,45.551232,-73.629844,1
107051,50979,Station Jarry (Saint-Denis / Jarry),45.542600,-73.628947,1
107052,50980,Jarry / Saint-Denis,45.542745,-73.629214,1
107053,50981,Station Jarry (Saint-Denis / Jarry),45.542567,-73.629414,1
107054,50982,Jarry / Saint-Denis,45.542441,-73.629157,1
107061,50983,Papineau / François-H.-Prévost,45.557533,-73.628343,1
107063,50984,Papineau / François-H.-Prévost,45.557496,-73.628879,1
107073,50985,Earnscliffe / Queen-Mary,45.482021,-73.630811,1
107074,50986,Queen-Mary / Earnscliffe,45.481833,-73.630576,1
107084,50987,de Monkland / Benny,45.466567,-73.630906,1
107087,50988,de Monkland / Benny,45.466810,-73.630861,1
107092,50989,Station Jarry (Jarry / Berri),45.543307,-73.628888,1
107095,50990,Station Jarry (Jarry / Berri),45.543613,-73.628478,1
107102,50991,Sherbrooke / Walkley,45.462809,-73.630862,1
107104,50992,Sherbrooke / Walkley,45.462623,-73.630883,1
107113,50993,Pie-IX / 55e Rue,45.582510,-73.627869,1
107122,50994,Barclay / Darlington,45.509311,-73.629560,1
107131,50995,Saint-Hubert / Mistral,45.547128,-73.628368,1
107133,50996,Saint-Hubert / Mistral,45.547092,-73.628696,1
107162,50997,Somerled / Wilson,45.476732,-73.630331,1
107164,50998,Somerled / Wilson,45.476532,-73.630343,1
107174,50999,Côte-Saint-Luc / Oxford,45.478121,-73.630223,1
107181,51000,Saint-Michel / Legendre,45.571691,-73.627218,1
107183,51001,Saint-Michel / Legendre,45.571652,-73.627664,1
107191,51002,Wilderton / de Bedford,45.512883,-73.628985,1
107202,51003,Queen-Mary / Coolbrook,45.482812,-73.629973,1
107212,51004,Côte-Sainte-Catherine / Légaré,45.496512,-73.629512,1
107214,51005,Côte-Sainte-Catherine / Légaré,45.496238,-73.629506,1
107221,51006,Saint-Laurent / Gounod,45.538079,-73.628086,1
107223,51007,Saint-Laurent / Gounod,45.538006,-73.628581,1
107242,51008,de Monkland / Madison,45.468029,-73.629770,1
107244,51009,de Monkland / Madison,45.467782,-73.629821,1
107252,51010,Côte-Saint-Luc / Dufferin,45.478436,-73.629336,1
107262,51011,Jarry / Foucher,45.544980,-73.627710,1
107264,51012,Jarry / Foucher,45.544750,-73.627649,1
107281,51013,Victoria / Lacombe,45.490507,-73.628814,1
107283,51014,Victoria / Lacombe,45.490532,-73.629196,1
107292,51015,Somerled / Oxford,45.477894,-73.629289,1
107301,51016,de l'Acadie / Ogilvy,45.524809,-73.627635,1
107303,51017,de l'Acadie / Ogilvy,45.524680,-73.627975,1
107321,51018,Décarie / Queen-Mary,45.483718,-73.628689,1
107323,51019,Décarie / Queen-Mary,45.483529,-73.629479,1
107324,51020,Queen-Mary/Décarie,45.483306,-73.629241,1
107332,51021,Van Horne / Hudson,45.505667,-73.628282,1
107334,51022,Van Horne / Hudson,45.505346,-73.628275,1
107354,51023,Goyer / Wilderton,45.512399,-73.628112,1
107361,51024,Clanranald / Snowdon,45.480042,-73.628969,1
107374,51025,Somerled / Côte-Saint-Luc,45.478258,-73.628791,1
107381,51026,Cavendish / Sherbrooke,45.463630,-73.628532,1
107382,51027,Sherbrooke / Cavendish,45.463866,-73.628851,1
107383,51028,Cavendish / Sherbrooke,45.463768,-73.629274,1
107384,51029,Sherbrooke / Cavendish,45.463489,-73.629238,1
107386,51030,Cavendish / Sherbrooke,45.463960,-73.629307,1
107392,51031,Queen-Mary / Trans Island,45.484489,-73.628622,1
107394,51032,Queen-Mary / Trans Island,45.484048,-73.628631,1
107402,51033,de Monkland / Grand Boulevard,45.469363,-73.628585,1
107403,51034,Grand Boulevard / de Monkland,45.469391,-73.629314,1
107404,51035,de Monkland / Grand Boulevard,45.469055,-73.628682,1
107413,51036,Pie-IX / des Grandes-Prairies,45.581344,-73.625304,1
107416,51037,Pie-IX / 53e Rue,45.581982,-73.626075,1
107423,51038,Earnscliffe / Snowdon,45.481008,-73.628557,1
107432,51039,Crémazie / Chambord,45.552215,-73.626767,1
107434,51040,Crémazie / Chambord,45.551704,-73.626525,1
107442,51041,Jarry / Saint-Hubert,45.546555,-73.626352,1
107443,51042,Saint-Hubert / Jarry,45.546443,-73.626630,1
107444,51043,Jarry / Saint-Hubert,45.546286,-73.626333,1
107446,51044,Saint-Hubert / Jarry,45.546600,-73.626707,1
107451,51045,Côte-des-Neiges / Côte-Sainte-Catherine,45.498616,-73.627207,1
107452,51046,Côte-Sainte-Catherine / Côte-des-Neiges,45.498822,-73.627426,1
107453,51047,Côte-des-Neiges / Côte-Sainte-Catherine,45.498703,-73.627686,1
107455,51048,Côte-Sainte-Catherine / Côte-des-Neiges,45.498476,-73.627480,1
107457,51049,Côte-Sainte-Catherine / Côte-des-Neiges,45.497998,-73.628170,1
107462,51050,Station Snowdon (Queen-Mary / Westbury),45.485509,-73.627721,1
107464,51051,Station Snowdon (Queen-Mary / Circle),45.485099,-73.627802,1
107471,51052,Saint-Denis / Gounod,45.541737,-73.625934,1
107473,51053,Saint-Denis / Gounod,45.541660,-73.626265,1
107482,51054,Barclay / Wilderton,45.512400,-73.626776,1
107491,51055,Champagneur / Ogilvy,45.527368,-73.626093,1
107492,51056,Ogilvy / Champagneur,45.527495,-73.626272,1
107494,51057,Ogilvy / Bloomfield,45.527763,-73.625945,1
107501,51058,Victoria / Jean-Brillant,45.489768,-73.627170,1
107503,51059,Victoria / Jean-Brillant,45.489791,-73.627543,1
107512,51060,de Monkland / Hingston,45.470573,-73.627485,1
107514,51061,de Monkland / Hingston,45.470320,-73.627522,1
107523,51062,Bloomfield / Ogilvy,45.527931,-73.626181,1
107532,51063,Station Acadie (Jean-Talon / de l'Acadie),45.524371,-73.625912,1
107534,51064,Station Acadie (Jean-Talon / de l'Acadie),45.524019,-73.625854,1
107536,51065,Station Acadie (Jean-Talon / de l'Acadie),45.524420,-73.626290,1
107548,51066,Rousselot / Crémazie,45.552336,-73.624551,1
107551,51067,Saint-Laurent / Villeray,45.537167,-73.624961,1
107553,51068,Saint-Laurent / Villeray,45.537076,-73.625401,1
107562,51069,Ogilvy / Querbes,45.529197,-73.625268,1
107564,51070,Ogilvy / Querbes,45.528910,-73.625265,1
107572,51071,Côte-Saint-Luc / Clanranald,45.478979,-73.626489,1
107576,51072,Clanranald / Côte-Saint-Luc,45.479115,-73.626914,1
107581,51073,Décarie / Snowdon,45.482683,-73.626381,1
107583,51074,Décarie / Snowdon,45.482464,-73.627134,1
107592,51075,Jarry / Christophe-Colomb,45.548329,-73.624550,1
107594,51076,Jarry / Christophe-Colomb,45.547904,-73.624766,1
107602,51077,Sherbrooke / Benny,45.465026,-73.626652,1
107604,51078,Sherbrooke / Benny,45.464778,-73.626787,1
107613,51079,Saint-Michel / Émile-Journault,45.570336,-73.624686,1
107616,51080,Saint-Michel / Émile-Journault,45.570372,-73.624220,1
107622,51081,Queen-Mary / Ponsard,45.487347,-73.626061,1
107642,51082,Van Horne / Darlington,45.508013,-73.625539,1
107644,51083,Van Horne / Darlington,45.507708,-73.625592,1
107652,51084,Jean-Talon / Wiseman,45.525848,-73.625037,1
107654,51085,Jean-Talon / Wiseman,45.525603,-73.624946,1
107664,51086,Queen-Mary / Lemieux,45.486787,-73.626289,1
107672,51087,Côte-Sainte-Catherine / Decelles,45.500857,-73.625593,1
107674,51088,Côte-Sainte-Catherine / Decelles,45.500509,-73.625653,1
107681,51089,Girouard / Côte-Saint-Luc,45.478785,-73.625709,1
107684,51090,Côte-Saint-Luc / Girouard,45.478845,-73.626282,1
107692,51091,de Monkland / Royal,45.472047,-73.626143,1
107694,51092,de Monkland / Royal,45.471708,-73.626259,1
107701,51093,Station Parc (Hutchison / Ogilvy),45.530174,-73.624262,1
107704,51094,Station Parc (Ogilvy / Hutchison),45.530065,-73.624583,1
107705,51095,Station Parc (Ogilvy / Hutchison),45.530549,-73.624282,1
107709,51096,Station Parc (Hutchison / Ogilvy),45.530024,-73.623756,1
107711,51097,Saint-Hubert / Gounod,45.545471,-73.624037,1
107713,51098,Saint-Hubert / Gounod,45.545495,-73.624375,1
107720,51099,Saint-Jacques / No 6910,45.457164,-73.629276,1
107731,51100,Pie-IX / 48e Rue,45.580461,-73.622653,2
107746,51101,Côte-des-Neiges / Saint-Kevin,45.497811,-73.625423,1
107748,51102,Côte-des-Neiges / Saint-Kevin,45.497461,-73.625001,1
107753,51103,Barclay / de Vimy,45.514771,-73.624639,1
107763,51104,Fabre / Crémazie,45.553457,-73.623538,1
107764,51105,Crémazie / Fabre,45.553292,-73.623624,1
107767,51106,Crémazie / Fabre,45.553667,-73.624115,1
107771,51107,Papineau / Crémazie,45.553709,-73.619782,1
107773,51108,Papineau / Crémazie,45.554788,-73.622966,1
107776,51109,Papineau / Crémazie,45.555109,-73.622503,1
107778,51110,Papineau / Crémazie Sud,45.553930,-73.621428,1
107783,51111,Cavendish / de Maisonneuve,45.462644,-73.626786,1
107789,51112,Cavendish / No 2525,45.462845,-73.626760,1
107792,51113,Jean-Talon / Bloomfield,45.527492,-73.624064,1
107794,51114,Jean-Talon / Bloomfield,45.527239,-73.623976,1
107828,51115,Pie-IX / 46e Rue,45.579809,-73.621737,1
107831,51116,Victoria / Queen-Mary,45.488569,-73.624532,1
107832,51117,Queen-Mary / Victoria,45.488785,-73.624776,1
107833,51118,Victoria / Queen-Mary,45.488651,-73.625002,1
107834,51119,Queen-Mary / Victoria,45.488482,-73.624776,1
107836,51120,Victoria / Dornal,45.488888,-73.625209,1
107842,51121,de Monkland / de Melrose,45.473407,-73.624898,1
107844,51122,de Monkland / de Melrose,45.473145,-73.624950,1
107852,51123,Van Horne / Wilderton,45.510009,-73.624130,1
107854,51124,Van Horne / Wilderton,45.509645,-73.624048,1
107862,51125,Jean-Talon / Querbes,45.528646,-73.623379,1
107863,51126,Querbes / Jean-Talon,45.528506,-73.623649,1
107864,51127,Jean-Talon / Querbes,45.528300,-73.623349,1
107871,51128,Girouard / de Terrebonne,45.478274,-73.624585,1
107878,51129,Girouard / Guillaume-Couture,45.478097,-73.624526,1
107891,51130,Saint-Denis / Villeray,45.540833,-73.622801,1
107893,51131,Saint-Denis / Villeray,45.540768,-73.623160,1
107902,51132,Jarry / De Normanville,45.549434,-73.622743,1
107904,51133,Jarry / De Normanville,45.549139,-73.622855,1
107912,51134,Sherbrooke / Madison,45.465865,-73.625042,1
107914,51135,Sherbrooke / Madison,45.465817,-73.624802,1
107924,51136,de Terrebonne / Côte-Saint-Luc,45.479091,-73.624375,1
107927,51137,de Terrebonne / Earnscliffe,45.478944,-73.624539,1
107932,51138,Côte-Saint-Luc / Earnscliffe,45.479424,-73.624457,1
107954,51140,Station Parc (Jean-Talon / Hutchison),45.529510,-73.622634,1
107961,51141,Lajeunesse / Villeray,45.542002,-73.622153,1
107971,51142,Saint-Michel / Denis-Papin,45.569098,-73.621339,1
107973,51143,Saint-Michel / Denis-Papin,45.569022,-73.621702,1
107992,51145,Queen-Mary / Roslyn,45.489957,-73.623723,1
107994,51146,Queen-Mary / Roslyn,45.489677,-73.623704,1
108002,51147,Van Horne / Northcrest,45.511629,-73.622875,1
108004,51148,Van Horne / Northcrest,45.511308,-73.622946,1
108011,51149,Saint-Laurent / Faillon,45.536334,-73.622100,1
108013,51150,Saint-Laurent / Gary-Carter,45.536274,-73.622632,1
108022,51151,Saint-Jacques / Cavendish,45.461681,-73.624004,1
108025,51152,Saint-Jacques / Cavendish,45.461889,-73.623165,1
108032,51153,de Monkland / Harvard,45.474622,-73.623790,1
108034,51154,de Monkland / Harvard,45.474376,-73.623821,1
108041,51155,Station Côte-des-Neiges Ouest / Lacombe,45.496833,-73.623216,1
108043,51156,Station Côte-des-Neiges Est / Lacombe,45.496842,-73.623609,1
108044,51157,Station Côte-des-Neiges Est / Lacombe,45.496623,-73.623502,1
108062,51158,Côte-Saint-Luc / de l'Orphelinat,45.479951,-73.623603,1
108074,51159,Villeray / Foucher,45.543100,-73.621771,1
108082,51160,Côte-Sainte-Catherine / Hudson,45.504118,-73.622645,1
108084,51161,Côte-Sainte-Catherine / Hudson,45.503859,-73.622623,1
108092,51162,Sherbrooke / Grand Boulevard,45.466798,-73.623268,1
108094,51163,Sherbrooke / Grand Boulevard,45.466527,-73.623449,1
108102,51164,Jarry / Rousselot,45.551034,-73.621112,1
108104,51165,Jarry / Rousselot,45.550750,-73.621107,1
108117,51166,De Maisonneuve / Benny,45.462999,-73.624265,1
108121,51167,Decelles / Édouard-Montpetit,45.499160,-73.622158,1
108122,51168,Édouard-Montpetit / Decelles,45.499522,-73.622345,1
108131,51169,Décarie / Jacques-Grenier,45.481266,-73.623237,1
108142,51170,de Monkland / Marcil,45.475808,-73.622722,1
108144,51171,de Monkland / Marcil,45.475534,-73.622773,1
108161,51172,Saint-Hubert / Villeray,45.544239,-73.620789,1
108162,51173,Villeray / Saint-Hubert,45.544376,-73.620934,1
108164,51174,Villeray / Saint-Hubert,45.544122,-73.620996,1
108174,51175,Queen-Mary / Cedar Crescent,45.491137,-73.622377,1
108177,51176,Queen-Mary / Cedar Crescent,45.490967,-73.622812,1
108182,51177,Crémazie / Papineau,45.554898,-73.622691,1
108184,51178,Crémazie / Papineau,45.554103,-73.621034,1
108192,51179,Côte-Saint-Luc / Décarie,45.481061,-73.622571,1
108193,51180,Décarie / Côte-Saint-Luc,45.480691,-73.623201,1
108195,51182,Côte-Saint-Luc / Décarie,45.481097,-73.622272,2
108204,51183,Notre-Dame-de-Grâce / Hampton,45.469042,-73.622650,1
108211,51184,Pie-IX / 43e Rue,45.578972,-73.619269,1
108213,51185,Pie-IX / 43e Rue,45.578904,-73.619674,1
108231,51186,Côte-des-Neiges / Jean-Brillant,45.496067,-73.621496,1
108233,51187,Côte-des-Neiges / Jean-Brillant,45.496098,-73.621950,1
108237,51188,Jean-Brillant / Côte-des-Neiges,45.496239,-73.621683,1
108242,51189,Jarry / Fabre,45.552161,-73.620100,1
108244,51190,Jarry / Fabre,45.551873,-73.620107,1
108262,51192,Côte-Sainte-Catherine / Darlington,45.505612,-73.621293,1
108264,51193,Côte-Sainte-Catherine / Darlington,45.505331,-73.621291,1
108271,51194,Victoria / Mira,45.487280,-73.621663,1
108273,51195,Victoria / Mira,45.487325,-73.622025,1
108281,51196,Saint-Denis / Faillon,45.540040,-73.620069,1
108283,51197,Saint-Denis / Faillon,45.539974,-73.620416,1
108292,51198,Jean-Talon / Alexandra,45.532603,-73.620335,1
108294,51199,Jean-Talon / Alexandra,45.532296,-73.620360,1
108302,51200,Crémazie / Chabot,45.555791,-73.619345,1
108311,51201,Girouard / de Monkland,45.476860,-73.621465,1
108312,51202,de Monkland / Girouard,45.477011,-73.621629,1
108313,51203,Girouard / de Monkland,45.476888,-73.621856,1
108314,51204,de Monkland / Girouard,45.476675,-73.621746,1
108326,51205,Station De Castelnau Est / Saint-Laurent,45.535682,-73.620198,1
108328,51206,Station De Castelnau Ouest / Saint-Laurent,45.535186,-73.619628,1
108331,51207,Christophe-Colomb / Villeray,45.545839,-73.619345,1
108332,51208,Villeray / Christophe-Colomb,45.546003,-73.619478,1
108333,51209,Christophe-Colomb / Villeray,45.545806,-73.619754,1
108334,51210,Villeray / Christophe-Colomb,45.545649,-73.619615,1
108342,51211,Sherbrooke / Hingston,45.467807,-73.621350,1
108344,51212,Sherbrooke / Hingston,45.467584,-73.621433,1
108352,51213,Édouard-Montpetit / McKenna,45.501366,-73.620681,1
108354,51214,Édouard-Montpetit / McKenna,45.501108,-73.620699,1
108361,51215,Papineau / Jarry,45.553218,-73.618767,1
108362,51216,Jarry / Papineau,45.553519,-73.618885,1
108363,51217,Papineau / Jarry,45.553231,-73.619237,1
108364,51218,Jarry / Papineau,45.553060,-73.619038,1
108371,51219,Ozias-Leduc / Gouin,45.630036,-73.617763,1
108374,51220,Gouin / Ozias-Leduc,45.629968,-73.618105,1
108392,51221,Côte-Sainte-Catherine / Woodbury,45.506795,-73.620225,1
108394,51222,Côte-Sainte-Catherine / Woodbury,45.506555,-73.620186,1
108404,51223,Crémazie / de Bordeaux,45.555473,-73.618700,1
108413,51224,Saint-Michel / Robert,45.567708,-73.618722,1
108424,51225,Notre-Dame-de-Grâce / de Melrose,45.471236,-73.620668,1
108442,51226,Jean-Talon / Clark,45.534211,-73.618857,1
108444,51227,Jean-Talon / Clark,45.533908,-73.618877,1
108448,51228,Clark / Jean-Talon,45.533709,-73.618216,1
108451,51229,Decelles / Jean-Brillant,45.497765,-73.619635,1
108453,51230,Decelles / Jean-Brillant,45.497815,-73.620044,1
108462,51231,Jarry / Chabot,45.554522,-73.617987,1
108464,51232,Jarry / Chabot,45.554273,-73.617952,1
108481,51233,De Lorimier / Crémazie,45.555869,-73.617448,1
108482,51234,Crémazie / De Lorimier,45.556435,-73.618040,1
108491,51235,Girouard / Duquette,45.476101,-73.619788,1
108493,51236,Girouard / Duquette,45.476145,-73.620220,1
108509,51237,Côte-Saint-Luc / No 5105,45.482617,-73.620597,1
108511,51238,Ozias-Leduc / Paul-Letondal,45.628412,-73.616053,1
108521,51239,Saint-Hubert / Faillon,45.542891,-73.617836,1
108530,51240,Notre-Dame / No 6450,45.457901,-73.615870,1
108542,51241,Station Villa-Maria / Terminus,45.479704,-73.619643,1
108547,51243,Décarie / Monkland,45.479449,-73.619946,1
108552,51244,Côte-Saint-Antoine / Royal,45.469071,-73.619857,2
108571,51245,Pie-IX / 39e Rue,45.577796,-73.616598,2
108573,51246,Pie-IX / 39e Rue,45.577751,-73.617058,1
108592,51247,Édouard-Montpetit / Louis-Colin,45.503404,-73.618841,1
108594,51248,Édouard-Montpetit / Louis-Colin,45.503105,-73.618898,1
108601,51249,Saint-Laurent / Jean-Talon,45.534653,-73.617993,1
108614,51250,Notre-Dame-de-Grâce / Harvard,45.472460,-73.619561,1
108621,51251,Côte-des-Neiges / Queen-Mary,45.495101,-73.618639,1
108622,51252,Queen-Mary / Côte-des-Neiges,45.495321,-73.618952,1
108623,51253,Côte-des-Neiges / Queen-Mary,45.495006,-73.619430,1
108627,51254,Queen-Mary/Oratoire Saint-Joseph,45.494653,-73.619497,1
108632,51255,Villeray / Chambord,45.548052,-73.617666,1
108634,51256,Villeray / Chambord,45.547836,-73.617674,1
108653,51257,du Parc / Beaumont,45.529168,-73.618155,1
108656,51258,du Parc / Beaumont,45.529370,-73.618130,1
108662,51259,Sherbrooke / Royal,45.468853,-73.619313,1
108671,51260,De Lorimier / Jarry,45.555518,-73.616663,1
108672,51261,Jarry / De Lorimier,45.555755,-73.616938,1
108673,51262,De Lorimier / Jarry,45.555568,-73.617249,1
108674,51263,Jarry / De Lorimier,45.555405,-73.616932,1
108681,51264,Saint-Denis / De Castelnau,45.539186,-73.617137,1
108683,51265,Saint-Denis / De Castelnau,45.539128,-73.617504,1
108694,51266,Jean-Talon / Saint-Dominique,45.535046,-73.617454,1
108704,51267,Queen-Mary / Gatineau,45.495510,-73.618419,1
108714,51268,Sherbrooke / de Clifton,45.468911,-73.618856,1
108722,51269,Jean-Talon / Casgrain,45.535899,-73.616805,1
108734,51270,Notre-Dame-de-Grâce / Marcil,45.473637,-73.618495,1
108742,51271,Côte-Sainte-Catherine / Déom,45.509973,-73.617346,1
108752,51272,Saint-Jacques / Madison,45.463186,-73.618510,1
108754,51273,Saint-Jacques / Madison,45.462948,-73.618872,1
108771,51274,Papineau / Tillemont,45.551980,-73.615976,1
108773,51275,Papineau / Tillemont,45.551972,-73.616361,1
108791,51276,Saint-Michel / Deville,45.566438,-73.615298,1
108793,51277,Saint-Michel / Deville,45.566392,-73.615728,1
108803,51278,Decelles / de la Tour,45.496788,-73.617980,1
108804,51279,Queen-Mary/Decelles,45.496367,-73.617648,1
108811,51280,Décarie / Duquette,45.478304,-73.617545,1
108813,51281,Décarie / Duquette,45.478389,-73.618050,1
108822,51282,Côte-Saint-Antoine / Wilson,45.471162,-73.617968,1
108842,51283,Perras / Ozias-Leduc,45.627536,-73.614920,1
108871,51285,du Parc/No 6659,45.528213,-73.615496,1
108882,51286,Édouard-Montpetit / Woodbury,45.505390,-73.617034,1
108884,51287,Édouard-Montpetit / Woodbury,45.505141,-73.617049,1
108892,51288,De Castelnau / Saint-Hubert,45.541373,-73.615475,1
108893,51289,De Chateaubriand / De Castelnau,45.540996,-73.615934,1
108901,51290,Decelles / Troie,45.496392,-73.616885,1
108911,51291,Girouard / Notre-Dame-de-Grâce,45.474937,-73.617218,1
108913,51292,Girouard / Notre-Dame-de-Grâce,45.474981,-73.617648,1
108914,51293,Notre-Dame-de-Grâce / Girouard,45.474790,-73.617452,1
108921,51294,Christophe-Colomb / Everett,45.544012,-73.615242,1
108923,51295,Christophe-Colomb / Everett,45.543984,-73.615609,1
108932,51296,Jean-Talon / Henri-Julien,45.537243,-73.615554,1
108951,51297,Saint-Hubert / De Castelnau,45.541592,-73.614998,1
108961,51298,Pie-IX / Denis-Papin,45.576543,-73.613762,1
108963,51299,Pie-IX / Denis-Papin,45.576602,-73.614534,1
108972,51300,Côte-Saint-Antoine / Oxford,45.472324,-73.616919,1
108981,51301,Papineau / Villeray,45.551267,-73.614366,1
108982,51302,Villeray / Papineau,45.551426,-73.614531,1
108983,51303,Papineau / Villeray,45.551341,-73.614940,1
108984,51304,Villeray / Papineau,45.551128,-73.614615,1
109000,51305,Notre-Dame / No 6300,45.459097,-73.613709,1
109014,51306,Côte-Saint-Luc / Bonavista,45.483317,-73.616843,1
109017,51307,Côte-Saint-Luc / Bonavista,45.483480,-73.616704,1
109031,51308,De Lorimier / Tillemont,45.554315,-73.613957,1
109033,51309,De Lorimier / Tillemont,45.554389,-73.614458,1
109041,51310,Station Jean-Talon Sud / Saint-Denis,45.538274,-73.614199,1
109042,51311,Station Jean-Talon Nord / Saint-Denis,45.538484,-73.614442,1
109043,51312,Station Jean-Talon Nord / Saint-Denis,45.538295,-73.614667,1
109052,51313,Sherbrooke / Wilson,45.470431,-73.616240,1
109054,51314,Sherbrooke / Wilson,45.470184,-73.616372,1
109061,51315,D'Iberville / Jarry,45.558944,-73.613220,1
109062,51316,Jarry / D'Iberville,45.559275,-73.613724,1
109064,51317,Jarry / Paul-Boutet,45.558829,-73.613825,1
109072,51318,Édouard-Montpetit / de Stirling,45.507417,-73.615209,1
109074,51319,Édouard-Montpetit / de Stirling,45.507133,-73.615253,1
109096,51321,Côte-des-Neiges / Decelles,45.495444,-73.616360,1
109114,51322,Station Jean-Talon Sud / De Saint-Vallier,45.538922,-73.613838,1
109121,51323,Papineau / L.-O.-David,45.550739,-73.613167,1
109123,51324,Papineau / L.-O.-David,45.550725,-73.613542,1
109131,51325,Décarie / Notre-Dame-de-Grâce,45.477223,-73.615145,1
109133,51326,Décarie / Notre-Dame-de-Grâce,45.477244,-73.615513,1
109134,51327,Notre-Dame-de-Grâce / Décarie,45.476966,-73.615492,1
109142,51328,Villeray / Chabot,45.552391,-73.613177,1
109144,51329,Villeray / Chabot,45.552188,-73.613238,1
109152,51330,Jean-Talon / De Chateaubriand,45.540126,-73.613574,1
109158,51331,Station Jean-Talon Sud / De Chateaubriand,45.539605,-73.613106,1
109162,51332,Côte-Saint-Antoine / Girouard,45.474198,-73.615225,1
109163,51333,Girouard / Côte-Saint-Antoine,45.474012,-73.615490,1
109167,51334,Girouard / Côte-Saint-Antoine,45.473986,-73.615093,1
109171,51335,Station Jean-Talon Est / Saint-Hubert,45.540641,-73.612946,1
109172,51336,Station Jean-Talon Est / Saint-Hubert,45.540844,-73.613176,1
109174,51337,Station Jean-Talon Est / Saint-Hubert,45.540498,-73.613116,1
109203,51338,2e Avenue / Jarry,45.560786,-73.612757,1
109204,51339,Jarry / 2e Avenue,45.560548,-73.612379,1
109206,51340,2e Avenue / Jarry,45.560893,-73.612702,1
109207,51341,Jarry / 2e Avenue,45.560520,-73.612609,1
109212,51342,Crémazie / D'Iberville,45.558669,-73.612440,1
109214,51343,Crémazie / Molson,45.558374,-73.611726,1
109222,51344,Sherbrooke / Oxford,45.471312,-73.614529,1
109224,51345,Sherbrooke / Oxford,45.471048,-73.614689,1
109234,51346,Notre-Dame-de-Grâce / Marlowe,45.478190,-73.614368,1
109244,51347,The Boulevard / Victoria,45.484016,-73.614670,1
109253,51348,du Parc / Beaubien,45.526905,-73.613048,1
109256,51349,du Parc / Beaubien,45.527370,-73.613618,1
109272,51350,Côte-Saint-Antoine / Botrel,45.475349,-73.614210,1
109281,51351,De Lorimier / Villeray,45.553344,-73.611764,1
109282,51352,Villeray / De Lorimier,45.553489,-73.611927,1
109283,51353,De Lorimier / Villeray,45.553362,-73.612141,1
109284,51354,Villeray / De Lorimier,45.553202,-73.612000,1
109301,51355,Christophe-Colomb / Jean-Talon,45.542480,-73.611801,1
109302,51356,Jean-Talon / Christophe-Colomb,45.542634,-73.612004,1
109303,51357,Christophe-Colomb / Jean-Talon,45.542481,-73.612231,1
109304,51358,Jean-Talon / Christophe-Colomb,45.542320,-73.612026,1
109321,51359,Saint-Michel / D'Hérelle,45.564491,-73.610884,1
109323,51360,Saint-Michel / D'Hérelle,45.565093,-73.612781,1
109331,51361,Saint-Denis / Bélanger,45.537155,-73.611738,1
109332,51362,Bélanger / Saint-Denis,45.537325,-73.611875,1
109333,51363,Saint-Denis / Bélanger,45.537139,-73.612144,1
109341,51364,D'Iberville / Tillemont,45.557702,-73.611093,1
109343,51365,D'Iberville / Tillemont,45.557726,-73.611443,1
109351,51366,Pie-IX / Robert,45.575107,-73.610496,1
109353,51367,Pie-IX / Robert,45.575049,-73.610928,1
109358,51368,Pie-IX / Robert,45.574818,-73.610404,1
109361,51369,Saint-Laurent / Saint-Zotique,45.531787,-73.611803,1
109381,51370,Décarie / Côte-Saint-Antoine,45.476287,-73.613063,1
109382,51371,Côte-Saint-Antoine / Northcliffe,45.476602,-73.613072,1
109383,51372,Décarie / Côte-Saint-Antoine,45.476312,-73.613443,1
109387,51373,Côte-Saint-Antoine / Prud'homme,45.475994,-73.613625,1
109392,51374,Jarry / 9e Avenue,45.562845,-73.610523,1
109394,51375,Jarry / 9e Avenue,45.562439,-73.610683,1
109404,51376,Notre-Dame-de-Grâce / Grey,45.479397,-73.612926,1
109438,51377,Saint-Dominique / Saint-Zotique,45.532056,-73.610670,1
109452,51378,Upper-Lachine / de Clifton,45.466583,-73.613051,1
109454,51379,Upper-Lachine / de Clifton,45.466379,-73.613089,1
109464,51380,Villeray / Louis-Hémon,45.554807,-73.610571,1
109467,51381,Villeray / Sagard,45.554644,-73.610889,1
109491,51383,Papineau / Everett,45.549475,-73.610323,1
109493,51384,Papineau / Everett,45.549482,-73.610744,1
109502,51385,Jean-Talon / De Normanville,45.544038,-73.610733,1
109504,51386,Jean-Talon / De Normanville,45.543771,-73.610716,1
109533,51387,Station Édouard-Montpetit / Vincent-d'Indy,45.510335,-73.612681,1
109534,51388,Station Édouard-Montpetit / Vincent-d'Indy,45.509557,-73.613068,1
109553,51389,De Chateaubriand / Bélanger,45.538561,-73.610810,1
109565,51390,Van Horne / Hutchison,45.525255,-73.610547,1
109570,51391,Côte-des-Neiges / No 4858,45.495272,-73.614311,1
109591,51392,Saint-Michel / Jarry,45.563790,-73.609293,1
109592,51393,Jarry / Shelley,45.564077,-73.609400,1
109593,51394,Saint-Michel / Jarry,45.563801,-73.609845,1
109594,51395,Jarry / Saint-Michel,45.563598,-73.609641,1
109602,51396,Sherbrooke / Girouard,45.472701,-73.611861,1
109603,51397,Girouard / Sherbrooke,45.472925,-73.613057,1
109604,51398,Sherbrooke / Girouard,45.472397,-73.612017,1
109605,51399,Sherbrooke / Girouard,45.472675,-73.611506,1
109622,51400,Côte-Saint-Antoine / de Vendôme,45.478021,-73.611549,1
109631,51401,Saint-Hubert / Bélanger,45.539220,-73.609812,1
109632,51402,Bélanger / Saint-Hubert,45.539377,-73.609989,1
109634,51403,Bélanger / Saint-Hubert,45.539125,-73.609995,1
109640,51404,Saint-Jacques / No 6360,45.462523,-73.620961,1
109649,51405,Saint-Jacques / No 6340,45.462778,-73.620506,1
109661,51406,du Parc / Van Horne,45.525660,-73.609808,1
109662,51407,Van Horne / du Parc,45.525901,-73.610154,1
109668,51408,du Parc / Van Horne,45.525519,-73.609888,1
109682,51409,Upper-Lachine / de Melrose,45.467530,-73.611627,1
109684,51410,Upper-Lachine / de Melrose,45.467310,-73.611694,1
109698,51411,Clark / Beaubien,45.529834,-73.609565,1
109702,51412,Jean-Talon / Garnier,45.546277,-73.608694,1
109704,51413,Jean-Talon / De Lanaudière,45.545235,-73.609413,1
109711,51414,D'Iberville / Villeray,45.556678,-73.608777,1
109712,51415,Villeray / D'Iberville,45.556812,-73.608944,1
109713,51416,D'Iberville / Villeray,45.556706,-73.609138,1
109714,51417,Villeray / D'Iberville,45.556558,-73.609005,1
109720,51418,Notre-Dame / No 6000,45.461372,-73.609589,1
109732,51419,Crémazie / 6e Avenue,45.560362,-73.609323,1
109734,51420,Crémazie / 6e Avenue,45.559866,-73.608942,1
109742,51421,Perras / Gilbert-Barbier,45.632909,-73.607146,1
109744,51422,Perras / Gilbert-Barbier,45.632598,-73.607137,1
109754,51423,Van Horne / Jeanne-Mance,45.526301,-73.609607,1
109771,51424,Pie-IX / Jean-Rivard,45.573909,-73.607780,1
109773,51425,Pie-IX / Jean-Rivard,45.573896,-73.608309,1
109781,51426,Côte-des-Neiges / Ridgewood,45.495958,-73.610143,1
109783,51427,Côte-des-Neiges / Ridgewood,45.495627,-73.610495,1
109784,51428,Ridgewood / Côte-des-Neiges,45.495446,-73.610128,1
109787,51429,Ridgewood / Côte-des-Neiges,45.495391,-73.610245,1
109791,51430,Fernand-Gauthier / Gouin,45.637375,-73.605966,2
109801,51431,Christophe-Colomb / Bélanger,45.540906,-73.608266,1
109802,51432,Bélanger / Christophe-Colomb,45.541055,-73.608434,1
109803,51433,Christophe-Colomb / Bélanger,45.540896,-73.608662,1
109804,51434,Bélanger / Christophe-Colomb,45.540734,-73.608503,1
109812,51435,Station Fabre (Jean-Talon / Fabre),45.546865,-73.608152,1
109814,51436,Station Fabre (Jean-Talon / Fabre),45.546606,-73.608136,1
109824,51437,Villeray / 1re Avenue,45.557811,-73.607909,1
109831,51438,Saint-Denis / Saint-Zotique,45.535586,-73.608285,1
109833,51439,Saint-Denis / Saint-Zotique,45.535556,-73.608652,1
109841,51440,Saint-Laurent / Beaubien,45.530198,-73.608307,1
109842,51441,Beaubien / Saint-Laurent,45.530407,-73.608414,1
109852,51442,Perras / Marc-Aurèle-Fortin,45.634033,-73.605517,1
109854,51443,Perras / Marc-Aurèle-Fortin,45.633659,-73.605601,1
109872,51444,Villeray / 2e Avenue,45.558585,-73.607365,1
109893,51445,Saint-Dominique / Beaubien,45.531048,-73.608442,1
109902,51446,Upper-Lachine / Oxford,45.469073,-73.609542,1
109904,51447,Upper-Lachine / Oxford,45.468816,-73.609628,1
109912,51448,Van Horne / Waverly,45.527560,-73.607885,1
109914,51449,Van Horne / Waverly,45.527360,-73.608043,1
109944,51450,Villeray / 6e Avenue,45.558913,-73.606935,1
109951,51451,Station Fabre (Papineau / Jean-Talon),45.547932,-73.606836,1
109953,51452,Station Fabre (Papineau / Jean-Talon),45.547952,-73.607288,1
109954,51453,Station Fabre (Jean-Talon / Papineau),45.547776,-73.607085,1
109957,51454,Station Fabre (Jean-Talon / Papineau),45.547734,-73.607367,1
109982,51455,Bélanger / De Normanville,45.542461,-73.607160,1
109984,51456,Bélanger / De Normanville,45.542206,-73.607179,1
109991,51457,D'Iberville / L.-O.-David,45.555657,-73.606477,1
109993,51458,D'Iberville / L.-O.-David,45.555692,-73.606847,1
11,10146,Station Berri-UQAM,45.514850,-73.559655,1
110003,51459,De Chateaubriand / Saint-Zotique,45.536999,-73.607356,1
110021,51460,Décarie / Sherbrooke,45.474089,-73.608182,1
110022,51461,Sherbrooke / Décarie,45.474466,-73.608801,1
110023,51462,Décarie / Sherbrooke,45.474535,-73.609490,1
110024,51463,Sherbrooke / Décarie,45.474038,-73.608989,1
110040,51464,Maurice-Duplessis / Cégep Marie-Victorin,45.620819,-73.607518,1
110051,51465,17e Avenue / Jarry,45.567719,-73.605734,1
110052,51466,Jarry / 17e Avenue,45.568028,-73.605871,1
110054,51467,Jarry / 17e Avenue,45.567604,-73.606038,1
110058,51468,17e Avenue / Jarry,45.567558,-73.605541,1
110061,51469,Saint-Michel / Crémazie,45.562920,-73.606652,2
110062,51470,Crémazie / Saint-Michel,45.562747,-73.607241,1
110063,51471,Saint-Michel / Crémazie,45.562448,-73.607556,1
110064,51472,Crémazie / Saint-Michel,45.562401,-73.606127,1
110068,51473,Saint-Michel / Crémazie,45.562074,-73.606817,1
110071,51474,Saint-Hubert / Saint-Zotique,45.537661,-73.606370,1
110082,51475,Bernard / Durocher,45.522414,-73.606751,1
110084,51476,Bernard / Durocher,45.522164,-73.606766,1
110092,51477,Jean-Talon / Chabot,45.549239,-73.606010,1
110094,51478,Jean-Talon / Chabot,45.548962,-73.606010,1
110101,51479,Pie-IX / D'Hérelle,45.572723,-73.605090,1
110103,51480,Pie-IX / D'Hérelle,45.572697,-73.605591,1
110112,51481,Beaubien / Alma,45.532512,-73.606453,1
110114,51482,Beaubien / Alma,45.532296,-73.606467,1
110124,51483,Villeray / 8e Avenue,45.559228,-73.605506,1
110132,51484,Bélanger / De Lanaudière,45.543908,-73.605854,1
110134,51485,Bélanger / De Lanaudière,45.543634,-73.605896,1
110141,51486,Côte-des-Neiges / Forest Hill,45.495608,-73.607078,1
110143,51487,Côte-des-Neiges / Forest Hill,45.495509,-73.607597,1
110154,51488,Perras / Fernand-Gauthier,45.634890,-73.603640,1
110164,51490,Upper-Lachine / Girouard,45.470298,-73.607635,1
110168,51491,Girouard / Upper-Lachine,45.470259,-73.607112,1
110172,51492,Villeray / 9e Avenue,45.560138,-73.604878,1
110182,51493,Jarry / 20e Avenue,45.569768,-73.604305,1
110184,51494,Jarry / 19e Avenue,45.569251,-73.604558,1
110192,51495,Sherbrooke / de Vendôme,45.475994,-73.607035,1
110194,51496,Sherbrooke / de Vendôme,45.475730,-73.607041,1
110211,51497,De Lorimier / Jean-Talon,45.550247,-73.604783,1
110212,51498,Jean-Talon / De Lorimier,45.550421,-73.604978,1
110213,51499,De Lorimier / Jean-Talon,45.550286,-73.605204,1
110214,51500,Jean-Talon / De Lorimier,45.550115,-73.604994,1
110221,51501,du Parc / Bernard,45.523647,-73.605277,1
110222,51502,Bernard / du Parc,45.523862,-73.605458,1
110223,51503,du Parc / Bernard,45.523673,-73.605730,1
110224,51504,Bernard / du Parc,45.523524,-73.605557,1
110246,51505,Saint-Laurent / de Bellechasse,45.529042,-73.605738,1
110251,51506,Christophe-Colomb / Saint-Zotique,45.539370,-73.604807,1
110253,51507,Christophe-Colomb / Saint-Zotique,45.539345,-73.605186,1
110261,51508,Station Beaubien (Saint-Denis / Beaubien),45.534008,-73.604813,1
110262,51509,Beaubien / Saint-Denis,45.534149,-73.604990,1
110263,51510,Saint-Denis / Beaubien,45.534008,-73.605245,1
110264,51511,Beaubien / Saint-Denis,45.533853,-73.605056,1
110271,51512,D'Iberville / Everett,45.554648,-73.604199,1
110273,51513,D'Iberville / Everett,45.554674,-73.604545,1
110282,51514,Bélanger / Fabre,45.545308,-73.604617,1
110284,51515,Bélanger / Fabre,45.545047,-73.604651,1
110292,51516,Upper-Lachine / Girouard,45.470597,-73.607524,1
110321,51517,Saint-Michel / Villeray,45.561245,-73.603541,1
110322,51518,Villeray / Saint-Michel,45.561409,-73.603689,1
110323,51519,Saint-Michel / Villeray,45.561266,-73.604116,1
110324,51520,Villeray / Saint-Michel,45.561064,-73.603860,1
110332,51521,Maurice-Duplessis / 5e Avenue,45.623875,-73.602124,1
110342,51522,Station Beaubien / de Saint-Vallier,45.535069,-73.604144,1
110356,51523,Décarie / De Maisonneuve,45.473208,-73.606232,1
110362,51524,Jarry / 22e Avenue,45.571027,-73.603212,1
110372,51525,Bernard / de l'Esplanade,45.525054,-73.604342,1
110374,51526,Bernard / de l'Esplanade,45.524767,-73.604441,1
110382,51527,Jean-Talon / Louis-Hémon,45.551968,-73.603615,1
110384,51528,Jean-Talon / Louis-Hémon,45.551701,-73.603602,1
110411,51529,Pie-IX / Jarry,45.571530,-73.602366,1
110412,51530,Jarry / Pie-IX,45.571702,-73.602560,1
110413,51531,Pie-IX / Jarry,45.571704,-73.603407,1
110414,51532,Jarry / Pie-IX,45.571213,-73.602797,1
110423,51533,Station Beaubien (de Chateaubriand / Beaubien),45.535460,-73.603955,1
110431,51534,Papineau / Bélanger,45.546359,-73.603345,1
110432,51535,Bélanger / Papineau,45.546508,-73.603504,1
110433,51536,Papineau / Bélanger,45.546378,-73.603783,1
110434,51537,Bélanger / Papineau,45.546208,-73.603578,1
110452,51538,Crémazie / 17e Avenue,45.566907,-73.603267,1
110453,51539,17e Avenue / Crémazie,45.566708,-73.603539,1
110454,51540,Crémazie / 17e Avenue,45.566333,-73.602927,1
110456,51541,17e Avenue / Crémazie,45.566698,-73.603218,1
110462,51542,Perras / Élie-Beauregard,45.636602,-73.600864,1
110464,51543,Perras / Élie-Beauregard,45.636243,-73.601019,1
110470,51544,Remembrance / Remembrance,45.496500,-73.603343,1
110471,51545,Côte-des-Neiges / Remembrance,45.495413,-73.602318,1
110473,51546,Côte-des-Neiges / Remembrance,45.494787,-73.604895,1
110482,51547,Newman / Joseph-Arthur-Cousineau,45.452579,-73.605343,1
110494,51548,Jarry / 23e Avenue,45.571905,-73.602175,1
110501,51549,Saint-Hubert / Beaubien,45.536094,-73.602910,1
110502,51550,Beaubien / Saint-Hubert,45.536243,-73.603049,1
110504,51551,Beaubien / Saint-Hubert,45.535993,-73.603111,1
110512,51552,Maurice-Duplessis / Pierre-Blanchet,45.624873,-73.600212,1
110514,51553,Maurice-Duplessis / Pierre-Blanchet,45.624559,-73.600316,1
110524,51554,Station D'Iberville (Jean-Talon / Louis-Hébert),45.552890,-73.602551,1
110533,51555,Saint-Urbain / Bernard,45.526211,-73.603544,1
110534,51556,Bernard / Saint-Urbain,45.525943,-73.603352,1
110548,51557,Saint-Michel / L.-O.-David,45.560332,-73.602006,1
110552,51558,Station Vendôme (De Maisonneuve / Marlowe),45.473987,-73.604511,1
110573,51559,Girouard / Saint-Jacques,45.469174,-73.604689,1
110582,51560,Bélanger / Chabot,45.547657,-73.602420,1
110584,51561,Bélanger / Chabot,45.547364,-73.602486,1
110591,51562,Allard / Irwin,45.449179,-73.604680,1
110593,51563,Allard / Irwin,45.448990,-73.605076,1
110602,51564,Station D'Iberville (Jean-Talon / D'Iberville),45.553754,-73.602035,1
110603,51565,Station D'Iberville (D'Iberville / Jean-Talon),45.553648,-73.602232,1
110604,51566,Station D'Iberville (Jean-Talon / D'Iberville),45.553481,-73.602022,1
110606,51567,Station D'Iberville (D'Iberville / Jean-Talon),45.553850,-73.602397,1
110622,51568,Newman / Jean-Béraud,45.453556,-73.604543,1
110625,51569,Newman / Résidence Y.-Brunet,45.453990,-73.604025,1
110631,51570,Saint-Michel / Everett,45.560114,-73.600981,1
110644,51571,Bernard / Saint-Laurent,45.527091,-73.602289,1
110651,51572,Saint-Laurent / Bernard,45.527294,-73.601968,1
110671,51573,Saint-Denis / de Bellechasse,45.532580,-73.601669,1
110673,51574,Saint-Denis / de Bellechasse,45.532581,-73.602106,1
110694,51575,François-Perrault / 14e Avenue,45.563535,-73.601491,1
110701,51576,du Parc / Saint-Viateur,45.522200,-73.602014,1
110702,51577,Saint-Viateur / du Parc,45.522372,-73.602148,1
110703,51578,du Parc / Saint-Viateur,45.522193,-73.602399,1
110711,51579,De Lorimier / Bélanger,45.548676,-73.601236,1
110712,51580,Bélanger / De Lorimier,45.548833,-73.601405,1
110713,51581,De Lorimier / Bélanger,45.548698,-73.601624,1
110714,51582,Bélanger / De Lorimier,45.548538,-73.601459,1
110721,51583,Christophe-Colomb / Beaubien,45.537824,-73.601338,1
110722,51584,Beaubien / Christophe-Colomb,45.537982,-73.601488,1
110723,51585,Christophe-Colomb / Beaubien,45.537807,-73.601741,1
110724,51586,Beaubien / Christophe-Colomb,45.537643,-73.601588,1
110742,51587,Jean-Talon / 1re Avenue,45.554978,-73.600953,1
110744,51588,Jean-Talon / 1re Avenue,45.554720,-73.600931,1
110762,51589,Perras / Salomon-Marion,45.637744,-73.598653,1
110764,51590,Perras / Salomon-Marion,45.637419,-73.598737,1
110772,51591,De Maisonneuve / Bulmer,45.475523,-73.602749,1
110787,51592,Shaughnessy / François-Perrault,45.564005,-73.601074,1
110814,51594,De Maisonneuve / Bulmer,45.475281,-73.602758,1
110833,51595,De Chateaubriand / de Bellechasse,45.534011,-73.600763,1
110842,51596,Villeray / Léonard-De Vinci,45.565924,-73.599677,1
110844,51597,Villeray / Léonard-De Vinci,45.565688,-73.599704,1
110854,51598,Beaubien / De Normanville,45.539152,-73.600237,1
110862,51599,Bélanger / Louis-Hémon,45.550406,-73.600075,1
110864,51600,Bélanger / Louis-Hémon,45.550149,-73.600086,1
110884,51601,Notre-Dame / Place Turcot Est,45.465192,-73.602505,2
110887,51602,Notre-Dame / Place Turcot Est,45.464917,-73.603309,2
110891,51603,Papineau / Saint-Zotique,45.544656,-73.599678,1
110893,51604,Papineau / Saint-Zotique,45.544750,-73.600277,1
110913,51605,Station Saint-Michel Ouest,45.559290,-73.599717,1
110916,51606,Station Saint-Michel Est,45.559939,-73.600522,1
110931,51607,Saint-Hubert / de Bellechasse,45.534607,-73.599621,1
110942,51608,Jean-Talon / 8e Avenue,45.556940,-73.599327,1
110944,51609,Jean-Talon / 8e Avenue,45.556635,-73.599297,1
110954,51610,Maurice-Duplessis / Marc-Aurèle-Fortin,45.626089,-73.597371,1
110962,51611,des Trinitaires / Lamont,45.446873,-73.602167,1
110971,51612,Jolicoeur / Jogues,45.455783,-73.602011,1
110973,51613,Jolicoeur / Jogues,45.455625,-73.602278,1
110984,51615,Saint-Jacques / Décarie,45.471079,-73.601009,1
110994,51616,26e Avenue / Gouin,45.643742,-73.596738,1
111002,51617,Villeray / 19e Avenue,45.566975,-73.598755,1
111004,51618,Villeray / 19e Avenue,45.566740,-73.598772,1
111011,51619,Armand-Bombardier / Perras,45.638371,-73.596665,1
111012,51620,Perras / Armand-Bombardier,45.638681,-73.596837,1
111014,51621,Perras / Armand-Bombardier,45.638251,-73.597123,1
111017,51622,Perras / Armand-Bombardier,45.638326,-73.597522,1
111022,51623,Saint-Viateur / Saint-Urbain,45.524869,-73.599861,1
111023,51624,Saint-Urbain / Saint-Viateur,45.524659,-73.600155,1
111035,51625,François-Perrault / 13e Avenue,45.562554,-73.602273,1
111041,51626,Côte-des-Neiges / Blueridge,45.495629,-73.601030,2
111043,51627,Côte-des-Neiges / Blueridge,45.495389,-73.601272,1
111062,51628,Beaubien / De Lanaudière,45.540839,-73.598908,1
111064,51629,Beaubien / De Lanaudière,45.540561,-73.598947,1
111071,51630,Saint-Michel / Jean-Talon,45.558849,-73.598117,1
111072,51631,Jean-Talon / Saint-Michel,45.559015,-73.598287,1
111073,51632,Saint-Michel / Jean-Talon,45.558890,-73.598745,1
111074,51633,Jean-Talon / Saint-Michel,45.558643,-73.598391,1
111091,51635,D'Iberville / Bélanger,45.552169,-73.598280,1
111092,51636,Bélanger / D'Iberville,45.552317,-73.598445,1
111094,51637,Bélanger / D'Iberville,45.552043,-73.598478,1
111098,51638,D'Iberville / Bélanger,45.551955,-73.598113,1
111102,51639,Allard / De Montmagny,45.449823,-73.601019,1
111104,51640,Allard / De Montmagny,45.449668,-73.601248,1
111111,51641,Saint-Laurent / Saint-Viateur,45.525785,-73.598686,1
111112,51642,Saint-Viateur / Saint-Laurent,45.525982,-73.598961,1
111114,51643,Saint-Viateur / Saint-Laurent,45.525691,-73.598919,1
111121,51644,Christophe-Colomb / de Bellechasse,45.536406,-73.598156,1
111123,51645,Christophe-Colomb / de Bellechasse,45.536400,-73.598583,1
111131,51646,Station Rosemont (Saint-Denis / Rosemont),45.531018,-73.598215,1
111132,51647,Rosemont / Saint-Denis,45.531217,-73.598465,1
111135,51648,Station Rosemont (Rosemont / De Saint-Vallier),45.531597,-73.597819,1
111138,51649,Station Rosemont (Saint-Denis / Rosemont),45.530575,-73.597706,1
111152,51650,Villeray / 22e Avenue,45.568516,-73.597401,1
111161,51651,De Lorimier / Saint-Zotique,45.547104,-73.597801,1
111163,51652,De Lorimier / Saint-Zotique,45.547135,-73.598192,1
111173,51653,Côte-des-Neiges / Gage,45.495362,-73.599367,1
111182,51654,Beaubien / Fabre,45.542090,-73.597754,1
111184,51655,Beaubien / Fabre,45.541811,-73.597814,1
111201,51656,Pie-IX / Villeray,45.569015,-73.596700,1
111202,51657,Villeray / Pie-IX,45.569142,-73.596850,1
111203,51658,Pie-IX / Villeray,45.568962,-73.597113,1
111204,51659,Villeray / Pie-IX,45.568820,-73.596952,1
111210,51660,Station Rosemont / Terminus,45.531062,-73.597207,1
111214,51661,Station Rosemont / Terminus,45.531003,-73.597673,1
111222,51662,Jean-Talon / 13e Avenue,45.560397,-73.597048,1
111224,51663,Jean-Talon / 13e Avenue,45.560137,-73.597055,1
111231,51664,Côte-des-Neiges / Hill Park,45.495578,-73.598619,1
111251,51665,Casgrain / Saint-Viateur,45.526943,-73.597354,1
111264,51666,Villeray / 23e Avenue,45.569408,-73.596428,1
111271,51667,Jolicoeur / Dumas,45.456229,-73.599517,1
111273,51668,Jolicoeur / Dumas,45.456061,-73.599738,1
111281,51669,Armand-Bombardier / Philippe-Lebon,45.636568,-73.594742,1
111283,51670,Armand-Bombardier / Philippe-Lebon,45.636649,-73.595234,1
111291,51671,du Parc / Fairmount,45.520366,-73.597286,1
111303,51672,Station Rosemont / De Chateaubriand,45.532556,-73.597533,1
111333,51673,du Parc / Fairmount,45.520389,-73.597760,1
111354,51674,Saint-Viateur / De Gaspé,45.527512,-73.597355,1
111381,51676,Papineau / Beaubien,45.543149,-73.596433,1
111382,51677,Beaubien / Papineau,45.543306,-73.596610,1
111383,51678,Papineau / Beaubien,45.543153,-73.596836,1
111384,51679,Beaubien / Papineau,45.542996,-73.596699,1
111392,51680,The Boulevard / de Trafalgar,45.493192,-73.597907,2
111394,51681,The Boulevard / de Trafalgar,45.493083,-73.597803,1
111402,51682,Bélanger / 6e Avenue,45.554711,-73.596363,1
111404,51683,Bélanger / 6e Avenue,45.554461,-73.596377,1
111412,51684,Rosemont / Saint-Hubert,45.533282,-73.596559,1
111414,51685,Rosemont / Saint-Hubert,45.533040,-73.596559,1
111416,51686,Saint-Hubert / Rosemont,45.533430,-73.597021,1
111422,51687,des Trinitaires / Jogues,45.446381,-73.599004,1
111424,51688,des Trinitaires / Jogues,45.446232,-73.599434,1
111431,51689,27e Avenue / Octave-Pelletier,45.641750,-73.593587,1
111433,51690,27e Avenue / Octave-Pelletier,45.641908,-73.593912,1
111444,51691,Perras / 25e Avenue,45.639900,-73.593923,1
111452,51692,Jean-Talon / 15e Avenue,45.561949,-73.595653,1
111454,51693,Jean-Talon / 15e Avenue,45.561721,-73.595633,1
111492,51694,Beaubien / Chabot,45.544430,-73.595555,1
111494,51695,Beaubien / Chabot,45.544180,-73.595582,1
111504,51696,Monk / Saint-Patrick,45.462718,-73.597527,1
111507,51697,Monk / Pierre-Héroux,45.462363,-73.597552,1
111524,51698,Maurice-Duplessis / La Valinière,45.628367,-73.593373,1
111527,51699,Maurice-Duplessis / La Valinière,45.628252,-73.593929,1
111531,51700,Saint-Rémi / Saint-Jacques,45.473678,-73.596766,1
111532,51701,Saint-Jacques / Saint-Rémi,45.473978,-73.596997,1
111534,51702,Saint-Jacques / Saint-Rémi,45.473528,-73.597244,1
111542,51703,Bélanger / 9e Avenue,45.556168,-73.595096,1
111544,51704,Bélanger / 9e Avenue,45.555947,-73.595084,1
111551,51705,Saint-Laurent / Maguire,45.524426,-73.595689,1
111562,51706,Jean-Talon / 17e Avenue,45.563045,-73.594672,1
111564,51707,Jean-Talon / 17e Avenue,45.562778,-73.594688,1
111571,51708,Notre-Dame / voie ferrée C.N.,45.467706,-73.597659,1
111581,51709,du Parc / Laurier,45.519610,-73.595590,1
111582,51710,Laurier / du Parc,45.519852,-73.595749,1
111583,51711,du Parc / Laurier,45.519634,-73.596043,1
111584,51712,Laurier / du Parc,45.519463,-73.595842,1
111587,51713,Laurier / du Parc,45.519373,-73.596166,1
111602,51714,The Boulevard / McDougall,45.495070,-73.596458,1
111603,51715,McDougall / The Boulevard,45.494952,-73.596653,1
111604,51716,The Boulevard / McDougall,45.494720,-73.596495,1
111611,51717,D'Iberville / Saint-Zotique,45.550542,-73.594793,1
